~VERSION INFORMATION
VERS.           2.0   :CWLS Log ASCII Standard - VERSION 2.0
WRAP.           YES   :Multiple lines per depth step
PROD.  Schlumberger   :LAS Producer
PROG.  DLIS to ASCII 13C0-300                          :LAS Program name and version
CREA.        2005/06/05 17:52                          :LAS Creation date {YYYY/MM/DD hh:mm}
SOURCE.     MERGE_TLD_MCFL_CNL_046.DLIS                :DLIS File Name
FILE-ID.     MERGE_TLD_MCFL_CNL_046                    :File Identification Number
#--------------------------------------------------
~WELL INFORMATION
#MNEM.UNIT      DATA             DESCRIPTION
#---- ------ --------------   -----------------------------
STRT .F         4647.0       :START DEPTH     
STOP .F         1912.0       :STOP DEPTH     
STEP .F           -0.5       :STEP     
NULL .          -999.25      :NULL VALUE
COMP .        RUTTER AND WILBANKS CORPORATION          :COMPANY
WELL .        AHTNA NO. 1-19 ST#1                      :WELL
FLD  .        COPPER RIVER BASIN WILDCAT               :FIELD
LOC  .        Sec. 19, T4N-R3W CRM                     :LOCATION
CNTY .        VALDEZ CORDOVA                           :COUNTY
STAT .        ALASKA                                   :STATE
CTRY .                                                 :COUNTRY
API  .        500992000500                             :API NUMBER
UWI  .        500992000500                             :UNIQUE WELL ID
DATE .        04-Jun-2005                              :LOG DATE {DD-MMM-YYYY}
SRVC .        Schlumberger                             :SERVICE COMPANY
LATI .DEG                                              :LATITUDE
LONG .DEG                                              :LONGITUDE
GDAT .                                                 :GeoDetic Datum
SECT .        19                                       :Section
RANG .        3W                                       :Range
TOWN .        4N                                       :Township
#-----------------------------------------------------------------------------
~PARAMETER INFORMATION
#MNEM.UNIT    VALUE                      DESCRIPTION
#---- -----   --------------------       ------------------------
RUN  .          ONE                      :RUN NUMBER
PDAT .        GROUND LEVEL               :Permanent Datum
EPD  .F         2018.699951              :Elevation of Permanent Datum above Mean Sea Level
EPD  .F         2018.699951              :Elevation of tool zero above Mean Sea Level
LMF  .          KELLY BUSHING            :Logging Measured From (Name of Logging Elevation Reference)
APD  .F          18.300049               :Elevation of Depth Reference (LMF) above Permanent Datum
#-----------------------------------------------------------------------------
~CURVE INFORMATION
#MNEM.UNIT   API CODE                                  DESCRIPTION
#---- -----  --------                                  -----------------------
DEPT .F                                                :DEPTH (BOREHOLE) {F10.1}
AHT10.OHMM                                             :Array Induction Two Foot Resistivity A10 {F13.4}
AHT20.OHMM                                             :Array Induction Two Foot Resistivity A20 {F13.4}
AHT30.OHMM                                             :Array Induction Two Foot Resistivity A30 {F13.4}
AHT60.OHMM                                             :Array Induction Two Foot Resistivity A60 {F13.4}
AHT90.OHMM                                             :Array Induction Two Foot Resistivity A90 {F13.4}
AHTCO60.MM/M                                           :Array Induction Two Foot Conductivity A60 {F13.4}
AHTCO90.MM/M                                           :Array Induction Two Foot Conductivity A90 {F13.4}
DPHZ .CFCF                                             :HRDD Standard Resolution Density Porosity {F13.4}
DSOZ .IN                                               :HRDD Standard Resolution Density Standoff {F13.4}
DT   .US/F                                             :Delta-T {F13.4}
GR   .GAPI                                             :Gamma-Ray {F13.4}
HAZI .DEG                                              :Hole Azimuth {F13.4}
HCAL .IN                                               :HRCC Cal. Caliper {F13.4}
HDRA .G/C3                                             :HRDD Density Correction {F13.4}
HMIN .OHMM                                             :MCFL Micro Inverse Resistivity {F13.4}
HMNO .OHMM                                             :MCFL Micro Normal Resistivity {F13.4}
HTEM .DEGF                                             :HTC Temperature {F13.4}
ITT  .S                                                :Integrated Transit Time {F13.4}
NPOR .CFCF                                             :Enhanced Thermal Neutron Porosity {F13.4}
PEFZ .                                                 :HRDD Standard Resolution Formation Photoelectric Factor {F13.4}
RSOZ .IN                                               :MCFL Standard Resolution Resistivity Standoff {F13.4}
RXOZ .OHMM                                             :MCFL Standard Resolution Invaded Zone Resistivity {F13.4}
SDEV .DEG                                              :Sonde Deviation {F13.4}
SP   .MV                                               :Spontaneous Potential {F13.4}
SPHI .CFCF                                             :Sonic Porosity {F13.4}
RHOZ .G/C3                                             :Bulk Density {F13.4}
#-----------------------------------------------------------------------------
# DEPT       
#     AHT10        AHT20        AHT30        AHT60        AHT90        AHTCO60      
#     AHTCO90      DPHZ         DSOZ         DT           GR           HAZI         
#     HCAL         HDRA         HMIN         HMNO         HTEM         ITT          
#     NPOR         PEFZ         RSOZ         RXOZ         SDEV         SP           
#     SPHI         RHOZ         
~A  
# ...
3555.0
      4.8639       5.0547       5.0642       5.2502       5.2452     190.4683
    190.6488       0.1438       0.2176     105.0831      41.7762     149.6786
      6.4800      -0.0012       3.7011       3.2797      88.6028       0.1079
      0.4114       4.7311       0.0000       4.8746       3.2710       0.6250
      0.3409       2.4128
3554.5
      4.6736       4.8565       4.9215       5.0877       5.0789     196.5526
    196.8916       0.1486       0.2295     105.3681      44.1404     149.5012
      6.4800      -0.0021       3.6112       3.2005      88.6028       0.1080
      0.4041       4.6589       0.0000       4.6892       3.2709       2.1875
      0.3428       2.4047
3554.0
      4.6998       4.8163       4.9144       5.0709       5.0578     197.2034
    197.7160       0.1525       0.2257     105.6898      44.5544     149.6182
      6.4800      -0.0042       4.0130       3.5543      88.6028       0.1080
      0.3746       4.5850       0.0000       5.0069       3.2665       1.0625
      0.3451       2.3983
3553.5
      5.0519       5.0553       5.1446       5.3029       5.2596     188.5753
    190.1284       0.1530       0.2357     105.2234      44.4551     149.5249
      6.4571      -0.0061       4.4124       3.9059      88.6028       0.1081
      0.4286       4.6151       0.0000       5.2223       3.2630       1.2500
      0.3418       2.3975
3553.0
      5.4268       5.5015       5.6259       5.8567       5.7708     170.7458
    173.2851       0.1452       0.2650     103.4480      41.9222     149.5709
      6.5945      -0.0045       4.4309       3.9222      88.6028       0.1081
      0.4123       4.7456       0.0000       5.6496       3.2664       0.8750
      0.3295       2.4104
3552.5
      5.9463       6.0006       6.0482       6.3042       6.2110     158.6236
    161.0048       0.1339       0.2861      99.8973      41.2894     149.5280
      6.6174      -0.0057       5.0260       4.4461      88.6028       0.1082
      0.3583       4.8518       0.0000       6.5617       3.2520       0.6875
      0.3048       2.4290
3552.0
      6.4655       6.7207       6.8976       7.1229       6.9656     140.3925
    143.5633       0.1223       0.2875      95.6776      34.9163     149.6467
      6.5258      -0.0065       7.0049       6.1899      88.6028       0.1082
      0.3006       4.7682       0.0000       8.2413       3.2518       0.9375
      0.2755       2.4483
3551.5
      7.6627       7.6937       7.8038       8.0756       7.8593     123.8299
    127.2385       0.1152       0.2801      91.3148      34.0770     149.6155
      6.4571      -0.0047       8.2292       7.2691      88.6028       0.1083
      0.2775       4.5286       0.0000      10.0827       3.2441      -1.0000
      0.2452       2.4599
3551.0
      7.8759       8.1718       8.2714       8.3804       8.0375     119.3265
    124.4164       0.1171       0.2752      88.5852      32.8218     149.6157
      6.3655      -0.0015       9.2430       8.1629      88.6028       0.1083
      0.2652       4.2663       0.0000      10.4307       3.2365      -1.2500
      0.2263       2.4569
3550.5
      7.5139       7.6990       7.8186       7.9456       7.7912     125.8558
    128.3495       0.1219       0.2868      92.0031      38.2592     149.4453
      6.3655       0.0016       7.5154       6.6399      88.6028       0.1084
      0.3099       4.1301       0.0000       8.2586       3.2282      -0.3750
      0.2500       2.4488
3550.0
      6.5639       6.8054       6.7345       6.7854       6.8370     147.3742
    146.2630       0.1335       0.2838      96.5519      41.8678     149.5373
      6.4227      -0.0008       4.7839       4.2329      88.6028       0.1084
      0.3689       4.1192       0.0000       6.6045       3.2256       1.3750
      0.2816       2.4296
3549.5
      5.8191       5.9769       5.9133       6.0032       6.0494     166.5780
    165.3047       0.1437       0.2763     102.0383      46.0328     149.4622
      6.5029      -0.0020       4.6562       4.1205      88.6028       0.1085
      0.3686       4.1430       0.0000       5.5264       3.2286       2.7500
      0.3197       2.4128
3549.0
      5.3065       5.5045       5.4946       5.6115       5.6621     178.2048
    176.6128       0.1478       0.2720     104.7157      42.9495     149.3717
      6.5945      -0.0018       4.3157       3.8208      88.6028       0.1085
      0.3986       4.1369       0.0000       5.6051       3.2334       1.6875
      0.3383       2.4061
3548.5
      5.1984       5.3308       5.3040       5.4164       5.4970     184.6235
    181.9165       0.1486       0.2655     103.9983      42.4572     149.5854
      6.5945      -0.0029       4.4638       3.9511      88.6028       0.1086
      0.3921       4.0478       0.0000       5.5234       3.2183       1.8750
      0.3333       2.4048
3548.0
      5.5271       5.6534       5.6405       5.8477       5.9413     171.0081
    168.3123       0.1480       0.2530     102.0849      41.8222     149.6536
      6.6862      -0.0058       4.8245       4.2687      88.6028       0.1086
      0.3672       3.8740       0.0000       6.3004       3.2089       0.1875
      0.3200       2.4059
3547.5
      6.1767       6.3539       6.3923       6.5522       6.6430     152.6196
    150.5335       0.1507       0.2284      98.5969      39.9415     149.5825
      6.6060      -0.0100       6.5838       5.8187      88.6028       0.1087
      0.2936       3.6797       0.0000       7.1282       3.1976      -0.0625
      0.2958       2.4014
3547.0
      6.7889       7.0087       7.0791       7.3473       7.3398     136.1049
    136.2444       0.1472       0.2226      96.6409      37.8593     149.5065
      6.5029      -0.0095       6.8953       6.0933      88.6028       0.1087
      0.3187       3.5564       0.0000       7.3443       3.1979      -0.7500
      0.2822       2.4072
3546.5
      6.6792       6.8743       6.9844       7.2567       7.3075     137.8028
    136.8452       0.1479       0.2254      96.3664      33.3825     149.5087
      6.7549      -0.0078       4.9766       4.4026      88.6028       0.1088
      0.3457       3.5456       0.0000       6.7694       3.1878      -0.1875
      0.2803       2.4060
3546.0
      6.5363       6.6908       6.8057       7.0979       7.1136     140.8871
    140.5763       0.1468       0.2421      97.2139      38.9531     149.3800
      6.6862      -0.0052       5.0816       4.4950      88.6028       0.1088
      0.3536       3.5775       0.0000       6.3769       3.1910       0.1875
      0.2862       2.4078
3545.5
      6.8161       7.0071       7.1262       7.5018       7.6276     133.3008
    131.1027       0.1465       0.2477      97.3970      36.8953     149.4755
      6.5258      -0.0041       5.9695       5.2771      88.6028       0.1089
      0.3063       3.5674       0.0000       7.2732       3.1883       0.2500
      0.2875       2.4083
3545.0
      7.0744       7.2932       7.4493       7.7926       7.7431     128.3262
    129.1469       0.1418       0.2529      94.8760      36.6586     149.5292
      6.5029      -0.0029       6.4748       5.7226      88.6028       0.1089
      0.3055       3.4766       0.0000       7.7582       3.1804       0.1875
      0.2700       2.4160
3544.5
      7.4046       7.6091       7.7749       8.1178       8.0189     123.1860
    124.7052       0.1356       0.2602      92.3545      31.2816     149.7189
      6.5487      -0.0019       6.8237       6.0301      88.6028       0.1090
      0.3013       3.3352       0.0000       9.0264       3.1673      -0.1875
      0.2525       2.4262
3544.0
      7.9500       8.2156       8.4431       8.7716       8.5790     114.0040
    116.5640       0.1342       0.2681      92.3568      33.5639     149.6025
      6.5029      -0.0034       8.8898       7.8515      88.6028       0.1090
      0.3271       3.1987       0.0000       8.7512       3.1653      -0.3750
      0.2525       2.4286
3543.5
      8.2046       8.5187       8.7087       9.0638       9.0019     110.3286
    111.0877       0.1345       0.2684      93.0771      38.4842     149.7102
      6.6174      -0.0045       6.2151       5.4937      88.6028       0.1091
      0.3578       3.1054       0.0000       8.0853       3.1596      -0.1875
      0.2575       2.4280
