~VERSION INFORMATION
VERS.           2.0   :CWLS Log ASCII Standard - VERSION 2.0
WRAP.           YES   :Multiple lines per depth step
PROD.  Schlumberger   :LAS Producer
PROG.  DLIS to ASCII 13C0-300                          :LAS Program name and version
CREA.        2005/06/05 17:52                          :LAS Creation date {YYYY/MM/DD hh:mm}
SOURCE.     MERGE_TLD_MCFL_CNL_046.DLIS                :DLIS File Name
FILE-ID.     MERGE_TLD_MCFL_CNL_046                    :File Identification Number
#--------------------------------------------------
~WELL INFORMATION
#MNEM.UNIT      DATA             DESCRIPTION
#---- ------ --------------   -----------------------------
STRT .F         4647.0       :START DEPTH     
STOP .F         1912.0       :STOP DEPTH     
STEP .F           -0.5       :STEP     
NULL .          -999.25      :NULL VALUE
COMP .        RUTTER AND WILBANKS CORPORATION          :COMPANY
WELL .        AHTNA NO. 1-19 ST#1                      :WELL
FLD  .        COPPER RIVER BASIN WILDCAT               :FIELD
LOC  .        Sec. 19, T4N-R3W CRM                     :LOCATION
CNTY .        VALDEZ CORDOVA                           :COUNTY
STAT .        ALASKA                                   :STATE
CTRY .                                                 :COUNTRY
API  .        500992000500                             :API NUMBER
UWI  .        500992000500                             :UNIQUE WELL ID
DATE .        04-Jun-2005                              :LOG DATE {DD-MMM-YYYY}
SRVC .        Schlumberger                             :SERVICE COMPANY
LATI .DEG                                              :LATITUDE
LONG .DEG                                              :LONGITUDE
GDAT .                                                 :GeoDetic Datum
SECT .        19                                       :Section
RANG .        3W                                       :Range
TOWN .        4N                                       :Township
#-----------------------------------------------------------------------------
~PARAMETER INFORMATION
#MNEM.UNIT    VALUE                      DESCRIPTION
#---- -----   --------------------       ------------------------
RUN  .          ONE                      :RUN NUMBER
PDAT .        GROUND LEVEL               :Permanent Datum
EPD  .F         2018.699951              :Elevation of Permanent Datum above Mean Sea Level
EPD  .F         2018.699951              :Elevation of tool zero above Mean Sea Level
LMF  .          KELLY BUSHING            :Logging Measured From (Name of Logging Elevation Reference)
APD  .F          18.300049               :Elevation of Depth Reference (LMF) above Permanent Datum
#-----------------------------------------------------------------------------
~CURVE INFORMATION
#MNEM.UNIT   API CODE                                  DESCRIPTION
#---- -----  --------                                  -----------------------
DEPT .F                                                :DEPTH (BOREHOLE) {F10.1}
AHT10.OHMM                                             :Array Induction Two Foot Resistivity A10 {F13.4}
AHT20.OHMM                                             :Array Induction Two Foot Resistivity A20 {F13.4}
AHT30.OHMM                                             :Array Induction Two Foot Resistivity A30 {F13.4}
AHT60.OHMM                                             :Array Induction Two Foot Resistivity A60 {F13.4}
AHT90.OHMM                                             :Array Induction Two Foot Resistivity A90 {F13.4}
AHTCO60.MM/M                                           :Array Induction Two Foot Conductivity A60 {F13.4}
AHTCO90.MM/M                                           :Array Induction Two Foot Conductivity A90 {F13.4}
DPHZ .CFCF                                             :HRDD Standard Resolution Density Porosity {F13.4}
DSOZ .IN                                               :HRDD Standard Resolution Density Standoff {F13.4}
DT   .US/F                                             :Delta-T {F13.4}
GR   .GAPI                                             :Gamma-Ray {F13.4}
HAZI .DEG                                              :Hole Azimuth {F13.4}
HCAL .IN                                               :HRCC Cal. Caliper {F13.4}
HDRA .G/C3                                             :HRDD Density Correction {F13.4}
HMIN .OHMM                                             :MCFL Micro Inverse Resistivity {F13.4}
HMNO .OHMM                                             :MCFL Micro Normal Resistivity {F13.4}
HTEM .DEGF                                             :HTC Temperature {F13.4}
ITT  .S                                                :Integrated Transit Time {F13.4}
NPOR .CFCF                                             :Enhanced Thermal Neutron Porosity {F13.4}
PEFZ .                                                 :HRDD Standard Resolution Formation Photoelectric Factor {F13.4}
RSOZ .IN                                               :MCFL Standard Resolution Resistivity Standoff {F13.4}
RXOZ .OHMM                                             :MCFL Standard Resolution Invaded Zone Resistivity {F13.4}
SDEV .DEG                                              :Sonde Deviation {F13.4}
SP   .MV                                               :Spontaneous Potential {F13.4}
SPHI .CFCF                                             :Sonic Porosity {F13.4}
RHOZ .G/C3                                             :Bulk Density {F13.4}
#-----------------------------------------------------------------------------
# DEPT       
#     AHT10        AHT20        AHT30        AHT60        AHT90        AHTCO60      
#     AHTCO90      DPHZ         DSOZ         DT           GR           HAZI         
#     HCAL         HDRA         HMIN         HMNO         HTEM         ITT          
#     NPOR         PEFZ         RSOZ         RXOZ         SDEV         SP           
#     SPHI         RHOZ         
~A  
# ...
4467.0
     22.1284      19.9089      18.7555      17.5007      18.9510      57.1404
     52.7676       0.0905       0.1185      83.3670      23.3093     119.4794
      6.2280      -0.0030      14.3283      12.6592      89.6808       0.0165
      0.2526       5.5287       0.0000      18.2442       3.8501     -11.8750
      0.1900       2.5007
4466.5
     22.1939      20.0846      19.1511      18.6326      19.9861      53.6693
     50.0347       0.0891       0.0440      83.4776      24.2066     119.4579
      6.2395      -0.0019      15.0451      13.2935      89.6808       0.0165
      0.2495       5.3463       0.0000      18.7939       3.8473     -11.8750
      0.1908       2.5030
4466.0
     22.8960      21.7109      20.5117      20.2452      21.9377      49.3945
     45.5836       0.0822       0.0333      83.7563      23.3978     119.4415
      6.2509       0.0006      15.2451      13.4705      89.6808       0.0166
      0.2641       5.3418       0.0000      18.9126       3.8506     -12.0625
      0.1928       2.5144
4465.5
     24.2318      22.9649      21.6205      21.7035      23.5808      46.0755
     42.4074       0.0701       0.0674      83.8411      24.9207     119.4778
      6.2395       0.0039      14.9677      13.2250      89.6808       0.0166
      0.2415       5.4031       0.0000      18.8582       3.8500     -12.1250
      0.1933       2.5343
4465.0
     24.2134      22.9908      21.8211      22.3561      24.1113      44.7306
     41.4743       0.0644       0.0773      83.4707      23.0772     119.4221
      6.2280       0.0041      15.2348      13.4614      89.6808       0.0167
      0.2337       5.4701       0.0000      18.9985       3.8506     -11.5625
      0.1908       2.5438
4464.5
     22.6361      22.3026      21.3335      22.1188      23.6009      45.2104
     42.3712       0.0652       0.0499      83.1019      23.2995     119.4402
      6.2280       0.0015      15.3401      13.5545      89.6808       0.0167
      0.2551       5.5433       0.0000      19.4174       3.8514     -11.1250
      0.1882       2.5424
4464.0
     21.3691      22.2874      21.4172      22.0743      23.2964      45.3016
     42.9251       0.0661       0.0339      81.6971      25.7776     119.4751
      6.2280      -0.0010      15.9172      14.0653      89.6808       0.0167
      0.2494       5.6700       0.0000      20.2234       3.8507      -9.8750
      0.1785       2.5409
4463.5
     22.1450      23.2847      22.4176      23.2460      24.1026      43.0182
     41.4893       0.0577       0.0757      80.9837      30.2698     119.4045
      6.2509      -0.0012      19.2556      17.0241      89.6808       0.0168
      0.2453       5.9145       0.0000      22.2302       3.8507      -9.3750
      0.1735       2.5548
4463.0
     23.1142      24.3644      23.1814      23.2712      23.8215      42.9716
     41.9789       0.0544       0.1018      81.3530      30.8202     119.3963
      6.2395       0.0002      19.6305      17.3566      89.6808       0.0168
      0.2436       6.2696       0.0000      22.5856       3.8556      -9.3125
      0.1761       2.5602
4462.5
     22.5224      23.3351      22.2476      22.3581      22.9013      44.7265
     43.6656       0.0536       0.1043      82.2326      27.9872     119.4194
      6.2509       0.0006      16.3587      14.4560      89.6808       0.0169
      0.2524       6.7500       0.0000      20.8782       3.8562      -8.6250
      0.1822       2.5616
4462.0
     21.4510      22.5019      21.9718      21.9831      22.2824      45.4896
     44.8785       0.0568       0.0849      82.4085      25.2691     119.3751
      6.2395      -0.0048      15.3532      13.5662      89.6808       0.0169
      0.2483       7.3166       0.0000      19.7044       3.8644     -10.3750
      0.1834       2.5562
4461.5
     21.5653      22.8612      23.1605      22.7053      23.1455      44.0425
     43.2049       0.0519       0.1113      77.0772      25.6649     119.3746
      6.2051      -0.0052      15.9626      14.1054      89.6808       0.0169
      0.2437       7.6675       0.0000      19.8546       3.8662      -9.3750
      0.1464       2.5644
4461.0
     30.1213      30.2984      32.0872      30.6278      31.7575      32.6501
     31.4886       0.0579       0.1624      69.6641      26.6065     119.3634
      6.1746      -0.0057      16.0636      14.5947      89.6808       0.0170
      0.2127       7.6555       0.0000      23.7869       3.8683     -10.0000
      0.0949       2.5544
4460.5
     49.8656      46.0799      52.4268      48.0659      50.4828      20.8048
     19.8087       0.0608       0.2130      64.4126      26.0152     119.4455
      6.2051       0.0009      24.1270      21.3447      89.6808       0.0170
      0.1605       7.3020       0.0000      28.0259       3.8653      -9.3125
      0.0584       2.5496
4460.0
     71.2212      47.4365      45.9023      45.7697      47.8777      21.8485
     20.8866       0.0696       0.2220      63.8537      26.6126     119.3534
      6.2586       0.0000      23.7621      21.0211      89.6808       0.0170
      0.1762       6.9358       0.0000      28.5612       3.8680     -10.5625
      0.0545       2.5352
4459.5
     57.3751      35.4789      39.0701      39.1431      40.8490      25.5473
     24.4804       0.0683       0.1947      70.0957      27.9182     119.4531
      6.2738      -0.0014      18.3413      16.2131      89.6808       0.0171
      0.2231       6.6350       0.0000      23.7276       3.8623     -10.5625
      0.0979       2.5373
4459.0
     34.8999      27.3622      30.9302      32.1698      34.4463      31.0851
     29.0307       0.0747       0.1412      77.6178      26.9234     119.4435
      6.2509      -0.0041      17.4160      15.3925      89.6808       0.0171
      0.2411       6.3071       0.0000      21.0240       3.8664     -11.7500
      0.1501       2.5268
4458.5
     25.9403      21.1126      23.6130      25.5640      26.2959      39.1176
     38.0287       0.0819       0.1302      82.3674      22.4230     119.4578
      6.2586      -0.0054      16.1566      14.2771      89.6808       0.0172
      0.2398       5.9260       0.0000      20.3680       3.8720     -12.4375
      0.1831       2.5149
4458.0
     23.5116      20.4252      22.1309      23.2750      24.2906      42.9645
     41.1681       0.0875       0.1489      83.4923      19.5807     119.4492
      6.2624      -0.0054      15.5864      13.7725      89.6808       0.0172
      0.2350       5.6420       0.0000      19.7781       3.8850     -11.8125
      0.1909       2.5056
4457.5
     21.4084      21.6553      22.2740      23.3200      24.2139      42.8816
     41.2986       0.0913       0.1708      83.7826      18.5874     119.4666
      6.2738      -0.0059      15.6929      13.8667      89.6808       0.0172
      0.2486       5.5419       0.0000      19.3239       3.8868     -11.5625
      0.1929       2.4993
4457.0
     20.7813      22.6418      22.8825      23.5017      24.2647      42.5502
     41.2121       0.0862       0.1462      83.8531      21.3077     119.4353
      6.2509      -0.0051      15.1260      13.3650      89.6808       0.0173
      0.2438       5.6013       0.0000      19.1767       3.8909     -11.3750
      0.1934       2.5077
4456.5
     20.9767      21.8613      21.9160      22.4641      23.2469      44.5154
     43.0165       0.0786       0.0786      84.1171      19.8517     119.4895
      6.2738      -0.0044      14.9887      13.2436      89.6808       0.0173
      0.2407       5.6280       0.0000      19.0129       3.8934     -10.5625
      0.1953       2.5204
4456.0
     20.5821      21.3319      21.2134      21.5617      22.2066      46.3786
     45.0316       0.0665       0.0285      84.0791      21.4850     119.5223
      6.2738      -0.0018      15.4131      13.6191      89.6808       0.0174
      0.2476       5.6228       0.0000      18.9037       3.8884     -10.0000
      0.1950       2.5403
4455.5
     20.7949      21.5403      21.5884      21.6279      22.2362      46.2366
     44.9718       0.0561       0.0079      83.9133      20.6164     119.5274
      6.2738       0.0013      15.3870      13.5960      89.6808       0.0174
      0.2480       5.5581       0.0000      19.7842       3.8862      -9.4375
      0.1938       2.5574
