~VERSION INFORMATION
VERS.           2.0   :CWLS Log ASCII Standard - VERSION 2.0
WRAP.           YES   :Multiple lines per depth step
PROD.  Schlumberger   :LAS Producer
PROG.  DLIS to ASCII 13C0-300                          :LAS Program name and version
CREA.        2005/06/05 17:52                          :LAS Creation date {YYYY/MM/DD hh:mm}
SOURCE.     MERGE_TLD_MCFL_CNL_046.DLIS                :DLIS File Name
FILE-ID.     MERGE_TLD_MCFL_CNL_046                    :File Identification Number
#--------------------------------------------------
~WELL INFORMATION
#MNEM.UNIT      DATA             DESCRIPTION
#---- ------ --------------   -----------------------------
STRT .F         4647.0       :START DEPTH     
STOP .F         1912.0       :STOP DEPTH     
STEP .F           -0.5       :STEP     
NULL .          -999.25      :NULL VALUE
COMP .        RUTTER AND WILBANKS CORPORATION          :COMPANY
WELL .        AHTNA NO. 1-19 ST#1                      :WELL
FLD  .        COPPER RIVER BASIN WILDCAT               :FIELD
LOC  .        Sec. 19, T4N-R3W CRM                     :LOCATION
CNTY .        VALDEZ CORDOVA                           :COUNTY
STAT .        ALASKA                                   :STATE
CTRY .                                                 :COUNTRY
API  .        500992000500                             :API NUMBER
UWI  .        500992000500                             :UNIQUE WELL ID
DATE .        04-Jun-2005                              :LOG DATE {DD-MMM-YYYY}
SRVC .        Schlumberger                             :SERVICE COMPANY
LATI .DEG                                              :LATITUDE
LONG .DEG                                              :LONGITUDE
GDAT .                                                 :GeoDetic Datum
SECT .        19                                       :Section
RANG .        3W                                       :Range
TOWN .        4N                                       :Township
#-----------------------------------------------------------------------------
~PARAMETER INFORMATION
#MNEM.UNIT    VALUE                      DESCRIPTION
#---- -----   --------------------       ------------------------
RUN  .          ONE                      :RUN NUMBER
PDAT .        GROUND LEVEL               :Permanent Datum
EPD  .F         2018.699951              :Elevation of Permanent Datum above Mean Sea Level
EPD  .F         2018.699951              :Elevation of tool zero above Mean Sea Level
LMF  .          KELLY BUSHING            :Logging Measured From (Name of Logging Elevation Reference)
APD  .F          18.300049               :Elevation of Depth Reference (LMF) above Permanent Datum
#-----------------------------------------------------------------------------
~CURVE INFORMATION
#MNEM.UNIT   API CODE                                  DESCRIPTION
#---- -----  --------                                  -----------------------
DEPT .F                                                :DEPTH (BOREHOLE) {F10.1}
AHT10.OHMM                                             :Array Induction Two Foot Resistivity A10 {F13.4}
AHT20.OHMM                                             :Array Induction Two Foot Resistivity A20 {F13.4}
AHT30.OHMM                                             :Array Induction Two Foot Resistivity A30 {F13.4}
AHT60.OHMM                                             :Array Induction Two Foot Resistivity A60 {F13.4}
AHT90.OHMM                                             :Array Induction Two Foot Resistivity A90 {F13.4}
AHTCO60.MM/M                                           :Array Induction Two Foot Conductivity A60 {F13.4}
AHTCO90.MM/M                                           :Array Induction Two Foot Conductivity A90 {F13.4}
DPHZ .CFCF                                             :HRDD Standard Resolution Density Porosity {F13.4}
DSOZ .IN                                               :HRDD Standard Resolution Density Standoff {F13.4}
DT   .US/F                                             :Delta-T {F13.4}
GR   .GAPI                                             :Gamma-Ray {F13.4}
HAZI .DEG                                              :Hole Azimuth {F13.4}
HCAL .IN                                               :HRCC Cal. Caliper {F13.4}
HDRA .G/C3                                             :HRDD Density Correction {F13.4}
HMIN .OHMM                                             :MCFL Micro Inverse Resistivity {F13.4}
HMNO .OHMM                                             :MCFL Micro Normal Resistivity {F13.4}
HTEM .DEGF                                             :HTC Temperature {F13.4}
ITT  .S                                                :Integrated Transit Time {F13.4}
NPOR .CFCF                                             :Enhanced Thermal Neutron Porosity {F13.4}
PEFZ .                                                 :HRDD Standard Resolution Formation Photoelectric Factor {F13.4}
RSOZ .IN                                               :MCFL Standard Resolution Resistivity Standoff {F13.4}
RXOZ .OHMM                                             :MCFL Standard Resolution Invaded Zone Resistivity {F13.4}
SDEV .DEG                                              :Sonde Deviation {F13.4}
SP   .MV                                               :Spontaneous Potential {F13.4}
SPHI .CFCF                                             :Sonic Porosity {F13.4}
RHOZ .G/C3                                             :Bulk Density {F13.4}
#-----------------------------------------------------------------------------
# DEPT       
#     AHT10        AHT20        AHT30        AHT60        AHT90        AHTCO60      
#     AHTCO90      DPHZ         DSOZ         DT           GR           HAZI         
#     HCAL         HDRA         HMIN         HMNO         HTEM         ITT          
#     NPOR         PEFZ         RSOZ         RXOZ         SDEV         SP           
#     SPHI         RHOZ         
~A  
# ...
2835.0
      8.2022       8.5255       8.6206       9.1695       9.3724     109.0569
    106.6958       0.0744       0.0384     101.5535      62.5143     219.2281
      6.4456       0.0025       6.5124       5.7567      85.0097       0.1761
      0.3976       4.0779       0.0000       8.0817       0.6484      -3.5625
      0.3163       2.5273
2834.5
      8.3251       8.7295       8.7772       9.3180       9.5184     107.3188
    105.0594       0.0886       0.0493     101.7113      60.8824     218.2447
      6.4800      -0.0030       6.4938       5.7403      85.3690       0.1761
      0.3696       4.1690       0.0000       7.9702       0.6462      -4.5000
      0.3174       2.5038
2834.0
      8.3745       8.7666       8.8157       9.3329       9.5721     107.1483
    104.4705       0.0932       0.0422     102.5250      60.7820     218.0789
      6.5487      -0.0049       6.2977       5.5675      85.3690       0.1762
      0.4173       4.3017       0.0000       7.8523       0.6508      -3.4375
      0.3231       2.4962
2833.5
      8.1995       8.4195       8.4900       8.9113       9.1300     112.2168
    109.5292       0.0953       0.0364     103.5091      58.6969     217.4520
      6.5029      -0.0047       6.4016       5.6591      85.3690       0.1762
      0.3840       4.5169       0.0000       7.6454       0.6512      -3.6875
      0.3299       2.4928
2833.0
      7.7174       7.8813       7.9159       8.2875       8.4960     120.6634
    117.7021       0.1001       0.0283     106.5831      54.4184     217.6681
      6.7205      -0.0045       6.1477       5.4352      85.3690       0.1763
      0.3842       4.7878       0.0000       7.7215       0.6568      -5.6875
      0.3513       2.4848
2832.5
      7.2810       7.1335       7.1475       7.5553       7.6303     132.3576
    131.0562       0.1065       0.0321     109.1115      56.3819     217.7645
      6.6862      -0.0047       6.2930       5.5633      85.0097       0.1763
      0.3875       4.9625       0.0000       7.4695       0.6589      -6.3125
      0.3688       2.4743
2832.0
      6.5419       6.5625       6.6015       6.9421       7.0592     144.0488
    141.6586       0.0968       0.0388     110.9640      54.5022     218.2957
      6.6862      -0.0033       5.8702       5.1907      85.0097       0.1764
      0.3817       5.0649       0.0000       7.6244       0.6588      -8.8125
      0.3817       2.4903
2831.5
      6.4928       6.5557       6.5832       6.8796       6.9786     145.3569
    143.2945       0.0768       0.0519     112.7624      59.7274     218.8107
      6.6403      -0.0025       6.3681       5.6295      85.0097       0.1764
      0.3760       5.3333       0.0000       7.5647       0.6512      -6.4375
      0.3942       2.5233
2831.0
      6.6948       6.8519       6.8671       7.1213       7.2609     140.4244
    137.7231       0.0690       0.0582     112.7978      61.7830     218.1178
      6.5945      -0.0021       6.1149       5.4063      85.0097       0.1765
      0.3419       5.8031       0.0000       7.7052       0.6535      -6.0625
      0.3944       2.5361
2830.5
      6.9172       7.0237       7.0648       7.3586       7.4965     135.8957
    133.3963       0.0795       0.0847     112.0863      62.9310     217.7832
      6.5945      -0.0042       6.0568       5.3551      85.0097       0.1766
      0.3706       6.1691       0.0000       7.5712       0.6558      -6.6250
      0.3895       2.5189
2830.0
      7.0105       7.1285       7.1486       7.4248       7.5789     134.6834
    131.9445       0.0974       0.1185     111.2467      63.1964     216.7528
      6.5945      -0.0050       6.1324       5.4217      85.0097       0.1766
      0.3847       6.0741       0.0000       7.5254       0.6557      -5.6875
      0.3837       2.4893
2829.5
      7.1446       7.2307       7.2428       7.5575       7.7038     132.3187
    129.8056       0.1032       0.1408     110.8417      59.1960     217.0399
      6.5945      -0.0052       5.8932       5.2109      85.0097       0.1767
      0.3533       5.5959       0.0000       7.4643       0.6602      -5.3750
      0.3808       2.4797
2829.0
      7.2203       7.2891       7.2892       7.5941       7.7508     131.6820
    129.0193       0.0982       0.0957     110.5038      59.4122     217.2520
      6.6403      -0.0023       6.0283       5.3299      85.0097       0.1767
      0.3646       5.0386       0.0000       7.4222       0.6655      -4.5000
      0.3785       2.4880
2828.5
      7.1355       7.2243       7.2391       7.5815       7.7046     131.8996
    129.7932       0.0922       0.0324     110.0158      56.3285     217.1097
      6.6174      -0.0000       6.0260       5.3280      85.0097       0.1768
      0.3494       4.6652       0.0000       7.4915       0.6634      -5.5625
      0.3751       2.4979
2828.0
      7.1311       7.2495       7.2488       7.5572       7.7087     132.3248
    129.7235       0.0847       0.0000     109.6816      57.4918     218.0780
      6.6633       0.0003       6.1026       5.3954      85.0097       0.1768
      0.3502       4.6070       0.0000       7.4680       0.6575      -4.6250
      0.3728       2.5102
2827.5
      7.0997       7.2204       7.2198       7.5153       7.6631     133.0621
    130.4951       0.0668       0.0128     109.0989      59.8704     217.6418
      6.6403       0.0023       5.9243       5.2383      85.0097       0.1769
      0.3663       5.0876       0.0000       7.3133       0.6505      -4.5625
      0.3687       2.5398
2827.0
      7.0695       7.1740       7.2264       7.5179       7.6755     133.0164
    130.2843       0.0587       0.0128     108.8746      60.5369     217.1955
      6.6633       0.0016       5.7426       5.0783      85.0097       0.1769
      0.3774       5.9725       0.0000       7.1639       0.6508      -5.0625
      0.3672       2.5532
2826.5
      7.0137       7.1025       7.1767       7.4603       7.6976     134.0424
    129.9107       0.0618       0.0128     110.0610      55.0994     216.6342
      6.5831       0.0016       5.7721       5.1043      85.0097       0.1770
      0.4087       6.5889       0.0000       7.6586       0.6473      -5.6250
      0.3754       2.5480
2826.0
      7.0331       7.1661       7.2468       7.5349       7.7144     132.7160
    129.6283       0.0716       0.0025     106.4074      49.3033     216.9495
      6.5029       0.0009       8.0115       7.0782      85.0097       0.1771
      0.3395       6.3031       0.0000      10.2931       0.6522      -4.8125
      0.3501       2.5318
2825.5
      8.0357       8.1122       8.2374       8.6368       8.5886     115.7831
    116.4331       0.0705       0.0025      99.9126      43.6450     216.8730
      6.4571       0.0018      16.7456      14.7952      85.0097       0.1771
      0.2347       5.4435       0.0000      14.9616       0.6536      -5.9375
      0.3049       2.5337
2825.0
     10.5311      10.7563      11.1110      11.6617      11.2671      85.7507
     88.7544       0.0648       0.0025      92.3197      46.3300     217.4620
      6.4686       0.0016      14.9463      13.2030      85.0097       0.1772
      0.2337       4.7957       0.0000      17.3277       0.6525      -4.5000
      0.2522       2.5432
2824.5
     13.5690      14.1313      14.3810      15.3091      14.7681      65.3206
     67.7137       0.0637       0.0000      85.5035      43.6007     217.8659
      6.4800       0.0004      11.6477      10.2870      85.0097       0.1772
      0.2668       4.6156       0.0000      14.4046       0.6415      -4.5625
      0.2049       2.5450
2824.0
     14.4523      14.8807      15.0805      15.7843      15.4835      63.3540
     64.5847       0.0668       0.0000      85.7326      46.3154     217.5103
      6.5144      -0.0002      10.1818       8.9920      85.0097       0.1772
      0.2813       4.6668       0.0000      12.4145       0.6339      -2.8125
      0.2065       2.5398
2823.5
     13.3971      13.9777      13.9915      14.7687      14.4966      67.7110
     68.9815       0.0694       0.0000      90.0868      49.0880     217.1940
      6.5258      -0.0007       8.2186       7.2608      85.0097       0.1773
      0.2879       4.7309       0.0000      10.9564       0.6331      -2.8125
      0.2367       2.5355
