~VERSION INFORMATION
VERS.           2.0   :CWLS Log ASCII Standard - VERSION 2.0
WRAP.           YES   :Multiple lines per depth step
PROD.  Schlumberger   :LAS Producer
PROG.  DLIS to ASCII 13C0-300                          :LAS Program name and version
CREA.        2005/06/05 17:52                          :LAS Creation date {YYYY/MM/DD hh:mm}
SOURCE.     MERGE_TLD_MCFL_CNL_046.DLIS                :DLIS File Name
FILE-ID.     MERGE_TLD_MCFL_CNL_046                    :File Identification Number
#--------------------------------------------------
~WELL INFORMATION
#MNEM.UNIT      DATA             DESCRIPTION
#---- ------ --------------   -----------------------------
STRT .F         4647.0       :START DEPTH     
STOP .F         1912.0       :STOP DEPTH     
STEP .F           -0.5       :STEP     
NULL .          -999.25      :NULL VALUE
COMP .        RUTTER AND WILBANKS CORPORATION          :COMPANY
WELL .        AHTNA NO. 1-19 ST#1                      :WELL
FLD  .        COPPER RIVER BASIN WILDCAT               :FIELD
LOC  .        Sec. 19, T4N-R3W CRM                     :LOCATION
CNTY .        VALDEZ CORDOVA                           :COUNTY
STAT .        ALASKA                                   :STATE
CTRY .                                                 :COUNTRY
API  .        500992000500                             :API NUMBER
UWI  .        500992000500                             :UNIQUE WELL ID
DATE .        04-Jun-2005                              :LOG DATE {DD-MMM-YYYY}
SRVC .        Schlumberger                             :SERVICE COMPANY
LATI .DEG                                              :LATITUDE
LONG .DEG                                              :LONGITUDE
GDAT .                                                 :GeoDetic Datum
SECT .        19                                       :Section
RANG .        3W                                       :Range
TOWN .        4N                                       :Township
#-----------------------------------------------------------------------------
~PARAMETER INFORMATION
#MNEM.UNIT    VALUE                      DESCRIPTION
#---- -----   --------------------       ------------------------
RUN  .          ONE                      :RUN NUMBER
PDAT .        GROUND LEVEL               :Permanent Datum
EPD  .F         2018.699951              :Elevation of Permanent Datum above Mean Sea Level
EPD  .F         2018.699951              :Elevation of tool zero above Mean Sea Level
LMF  .          KELLY BUSHING            :Logging Measured From (Name of Logging Elevation Reference)
APD  .F          18.300049               :Elevation of Depth Reference (LMF) above Permanent Datum
#-----------------------------------------------------------------------------
~CURVE INFORMATION
#MNEM.UNIT   API CODE                                  DESCRIPTION
#---- -----  --------                                  -----------------------
DEPT .F                                                :DEPTH (BOREHOLE) {F10.1}
AHT10.OHMM                                             :Array Induction Two Foot Resistivity A10 {F13.4}
AHT20.OHMM                                             :Array Induction Two Foot Resistivity A20 {F13.4}
AHT30.OHMM                                             :Array Induction Two Foot Resistivity A30 {F13.4}
AHT60.OHMM                                             :Array Induction Two Foot Resistivity A60 {F13.4}
AHT90.OHMM                                             :Array Induction Two Foot Resistivity A90 {F13.4}
AHTCO60.MM/M                                           :Array Induction Two Foot Conductivity A60 {F13.4}
AHTCO90.MM/M                                           :Array Induction Two Foot Conductivity A90 {F13.4}
DPHZ .CFCF                                             :HRDD Standard Resolution Density Porosity {F13.4}
DSOZ .IN                                               :HRDD Standard Resolution Density Standoff {F13.4}
DT   .US/F                                             :Delta-T {F13.4}
GR   .GAPI                                             :Gamma-Ray {F13.4}
HAZI .DEG                                              :Hole Azimuth {F13.4}
HCAL .IN                                               :HRCC Cal. Caliper {F13.4}
HDRA .G/C3                                             :HRDD Density Correction {F13.4}
HMIN .OHMM                                             :MCFL Micro Inverse Resistivity {F13.4}
HMNO .OHMM                                             :MCFL Micro Normal Resistivity {F13.4}
HTEM .DEGF                                             :HTC Temperature {F13.4}
ITT  .S                                                :Integrated Transit Time {F13.4}
NPOR .CFCF                                             :Enhanced Thermal Neutron Porosity {F13.4}
PEFZ .                                                 :HRDD Standard Resolution Formation Photoelectric Factor {F13.4}
RSOZ .IN                                               :MCFL Standard Resolution Resistivity Standoff {F13.4}
RXOZ .OHMM                                             :MCFL Standard Resolution Invaded Zone Resistivity {F13.4}
SDEV .DEG                                              :Sonde Deviation {F13.4}
SP   .MV                                               :Spontaneous Potential {F13.4}
SPHI .CFCF                                             :Sonic Porosity {F13.4}
RHOZ .G/C3                                             :Bulk Density {F13.4}
#-----------------------------------------------------------------------------
# DEPT       
#     AHT10        AHT20        AHT30        AHT60        AHT90        AHTCO60      
#     AHTCO90      DPHZ         DSOZ         DT           GR           HAZI         
#     HCAL         HDRA         HMIN         HMNO         HTEM         ITT          
#     NPOR         PEFZ         RSOZ         RXOZ         SDEV         SP           
#     SPHI         RHOZ         
~A  
# ...
3015.0
     16.7500      16.6887      16.7071      18.2374      19.3942      54.8324
     51.5618       0.0679       0.0000      84.0748      35.3592     227.0626
      6.4571      -0.0028      14.5017      12.8099      86.0877       0.1601
      0.2536       4.3805       0.0000      18.6526       0.6735      -8.5000
      0.1950       2.5380
3014.5
     17.1528      17.6852      17.8124      19.3856      20.6125      51.5847
     48.5143       0.0635       0.0000      83.5804      36.6012     226.3665
      6.4571      -0.0028      15.1861      13.4156      86.0877       0.1601
      0.2745       4.3832       0.0000      19.1288       0.6715      -7.8125
      0.1915       2.5453
3014.0
     17.6927      19.3125      18.9997      20.6629      21.9430      48.3959
     45.5727       0.0648       0.0000      82.5421      39.9009     226.1385
      6.4571      -0.0025      16.2846      14.3877      86.0877       0.1601
      0.2467       4.5077       0.0000      20.3619       0.6626      -6.8750
      0.1843       2.5431
3013.5
     19.2402      20.4933      20.4641      21.6598      22.6246      46.1686
     44.1996       0.0767       0.0000      81.8282      40.6248     225.7830
      6.4800      -0.0038      14.4823      12.7928      86.0877       0.1602
      0.2450       4.8169       0.0000      14.4283       0.6597      -7.6250
      0.1794       2.5234
3013.0
     17.3094      18.1398      17.9700      19.0699      20.1022      52.4386
     49.7457       0.0815       0.0042      83.5338      40.4052     226.0814
      6.5258      -0.0027       7.7551       6.8519      86.0877       0.1602
      0.3270       5.1146       0.0000      11.2741       0.6504      -6.3125
      0.1912       2.5155
3012.5
     12.7051      13.0537      12.8819      13.4993      14.4101      74.0779
     69.3956       0.0758       0.0221      86.2472      41.8666     226.1550
      6.5258       0.0028       7.3786       6.5200      86.0877       0.1603
      0.3144       5.4109       0.0000       8.8149       0.6553      -5.6250
      0.2101       2.5249
3012.0
     10.2820      10.4838      10.4548      10.9610      11.5104      91.2328
     86.8776       0.0775       0.0356      90.9678      43.7433     226.1419
      6.5029       0.0024       6.1755       5.4595      86.0877       0.1603
      0.3426       5.5787       0.0000       8.8185       0.6483      -5.0625
      0.2428       2.5222
3011.5
      8.9552       9.1319       9.1337       9.5770      10.0205     104.4164
     99.7949       0.0825       0.0378      92.9709      47.0679     226.0776
      6.5258       0.0012       6.9331       6.1273      86.0877       0.1604
      0.3236       5.6455       0.0000       9.2630       0.6515      -5.3125
      0.2567       2.5139
3011.0
      9.0203       9.1303       9.1549       9.6575      10.0984     103.5466
     99.0251       0.0995       0.0624      93.6727      47.6889     225.6092
      6.5602      -0.0056       8.7248       7.7068      86.0877       0.1604
      0.2798       5.5189       0.0000      10.4105       0.6486      -5.0625
      0.2616       2.4858
3010.5
      9.5780       9.7225       9.7511      10.2592      10.6139      97.4734
     94.2157       0.1006       0.1028      94.0079      48.8710     225.3802
      6.5945      -0.0070       8.4051       7.4249      86.0877       0.1605
      0.2891       5.3015       0.0000      10.7981       0.6473      -4.8125
      0.2639       2.4840
3010.0
      9.5959       9.6920       9.9321      10.4034      10.6533      96.1220
     93.8675       0.0983       0.1445      93.2411      50.5270     225.0677
      6.6174      -0.0077       8.5545       7.5566      86.0877       0.1605
      0.3105       5.0593       0.0000      10.7666       0.6438      -4.9375
      0.2586       2.4878
3009.5
      9.5613       9.8063       9.9292      10.3983      10.5324      96.1695
     94.9449       0.0901       0.1478      93.1880      52.9400     224.5618
      6.6174      -0.0063       8.6764       7.6640      86.0877       0.1606
      0.2934       4.8777       0.0000      10.5602       0.6406      -2.5625
      0.2582       2.5013
3009.0
      9.8097      10.1193      10.0971      10.5248      10.7653      95.0139
     92.8914       0.0766       0.1027      92.6645      50.4376     225.3945
      6.5945      -0.0009       8.2940       7.3270      86.0877       0.1606
      0.2878       4.6692       0.0000      10.5297       0.6429      -3.5000
      0.2546       2.5236
3008.5
     10.1490      10.3581      10.3994      10.8207      10.8806      92.4151
     91.9069       0.0761       0.0652      92.0529      53.7647     225.1630
      6.6518      -0.0011       8.6157       7.6106      86.0877       0.1606
      0.2759       4.5862       0.0000      10.4495       0.6414      -1.6875
      0.2504       2.5245
3008.0
     10.3522      10.5918      10.5799      10.8950      11.0864      91.7851
     90.2010       0.0768       0.0192      91.9267      49.6957     224.9600
      6.6862      -0.0020       8.5767       7.5762      86.0877       0.1607
      0.2883       4.5898       0.0000      10.5878       0.6453      -1.4375
      0.2495       2.5233
3007.5
     10.3849      10.6129      10.5708      10.9042      11.1907      91.7081
     89.3602       0.0867       0.0105      92.1208      53.2147     225.1099
      6.7091      -0.0049       8.3658       7.3903      86.0877       0.1607
      0.2900       4.7311       0.0000      10.3377       0.6402      -1.8125
      0.2508       2.5069
3007.0
     10.3475      10.4816      10.4232      10.7491      11.0891      93.0308
     90.1786       0.0865       0.0000      92.6892      50.6141     224.7572
      6.7549      -0.0029       8.0452       7.1076      86.0877       0.1608
      0.2998       4.7610       0.0000       9.4750       0.6319      -2.0625
      0.2548       2.5073
3006.5
     10.0922      10.1770      10.1542      10.3492      10.8234      96.6261
     92.3920       0.0948       0.0000      93.8066      52.4771     225.0541
      6.7320      -0.0028       6.9101       6.1070      86.0877       0.1608
      0.3190       4.7624       0.0000       8.9566       0.6332      -3.1875
      0.2625       2.4936
3006.0
      9.7139       9.7936       9.7349      10.0472      10.4414      99.5301
     95.7726       0.1003       0.0000      94.3628      53.2877     225.6425
      6.7091      -0.0024       7.1558       6.3236      86.0877       0.1609
      0.3098       4.6967       0.0000       8.1284       0.6343      -3.9375
      0.2664       2.4845
3005.5
      9.3856       9.4119       9.3687       9.7571      10.0747     102.4895
     99.2582       0.0964       0.0101      97.0093      48.8115     225.2897
      6.7205      -0.0004       6.3586       5.6209      86.0877       0.1609
      0.3158       4.6996       0.0000       8.3738       0.6275      -4.1875
      0.2848       2.4910
3005.0
      8.8293       8.9061       8.8633       9.2064       9.5977     108.6196
    104.1911       0.0857       0.0132      98.1843      49.6395     225.7684
      6.7091       0.0007       6.9143       6.1107      86.0877       0.1610
      0.3209       4.7651       0.0000       8.4365       0.6330      -4.9375
      0.2929       2.5086
3004.5
      8.5941       8.7700       8.6429       9.0033       9.3649     111.0709
    106.7822       0.0784       0.0132      98.0089      50.8804     225.2204
      6.7091      -0.0002       7.2079       6.3695      86.0877       0.1610
      0.2984       5.0173       0.0000       8.9232       0.6322      -4.1875
      0.2917       2.5207
3004.0
      8.8664       9.0973       9.0779       9.3935       9.9177     106.4561
    100.8296       0.0803       0.0059      97.6586      55.2511     225.1434
      6.6976      -0.0029       6.8362       6.0419      86.0877       0.1611
      0.3349       5.3533       0.0000       8.5356       0.6250      -4.5625
      0.2893       2.5175
3003.5
      8.9137       9.6565       9.4469       9.6737      10.2769     103.3733
     97.3056       0.0680       0.0213      95.2382      52.3405     225.1898
      6.6633      -0.0026       6.8209       6.0285      86.0877       0.1611
      0.3517       5.6999       0.0000      10.4544       0.6250      -4.3750
      0.2725       2.5378
