~VERSION INFORMATION
VERS.           2.0   :CWLS Log ASCII Standard - VERSION 2.0
WRAP.           YES   :Multiple lines per depth step
PROD.  Schlumberger   :LAS Producer
PROG.  DLIS to ASCII 13C0-300                          :LAS Program name and version
CREA.        2005/06/05 17:52                          :LAS Creation date {YYYY/MM/DD hh:mm}
SOURCE.     MERGE_TLD_MCFL_CNL_046.DLIS                :DLIS File Name
FILE-ID.     MERGE_TLD_MCFL_CNL_046                    :File Identification Number
#--------------------------------------------------
~WELL INFORMATION
#MNEM.UNIT      DATA             DESCRIPTION
#---- ------ --------------   -----------------------------
STRT .F         4647.0       :START DEPTH     
STOP .F         1912.0       :STOP DEPTH     
STEP .F           -0.5       :STEP     
NULL .          -999.25      :NULL VALUE
COMP .        RUTTER AND WILBANKS CORPORATION          :COMPANY
WELL .        AHTNA NO. 1-19 ST#1                      :WELL
FLD  .        COPPER RIVER BASIN WILDCAT               :FIELD
LOC  .        Sec. 19, T4N-R3W CRM                     :LOCATION
CNTY .        VALDEZ CORDOVA                           :COUNTY
STAT .        ALASKA                                   :STATE
CTRY .                                                 :COUNTRY
API  .        500992000500                             :API NUMBER
UWI  .        500992000500                             :UNIQUE WELL ID
DATE .        04-Jun-2005                              :LOG DATE {DD-MMM-YYYY}
SRVC .        Schlumberger                             :SERVICE COMPANY
LATI .DEG                                              :LATITUDE
LONG .DEG                                              :LONGITUDE
GDAT .                                                 :GeoDetic Datum
SECT .        19                                       :Section
RANG .        3W                                       :Range
TOWN .        4N                                       :Township
#-----------------------------------------------------------------------------
~PARAMETER INFORMATION
#MNEM.UNIT    VALUE                      DESCRIPTION
#---- -----   --------------------       ------------------------
RUN  .          ONE                      :RUN NUMBER
PDAT .        GROUND LEVEL               :Permanent Datum
EPD  .F         2018.699951              :Elevation of Permanent Datum above Mean Sea Level
EPD  .F         2018.699951              :Elevation of tool zero above Mean Sea Level
LMF  .          KELLY BUSHING            :Logging Measured From (Name of Logging Elevation Reference)
APD  .F          18.300049               :Elevation of Depth Reference (LMF) above Permanent Datum
#-----------------------------------------------------------------------------
~CURVE INFORMATION
#MNEM.UNIT   API CODE                                  DESCRIPTION
#---- -----  --------                                  -----------------------
DEPT .F                                                :DEPTH (BOREHOLE) {F10.1}
AHT10.OHMM                                             :Array Induction Two Foot Resistivity A10 {F13.4}
AHT20.OHMM                                             :Array Induction Two Foot Resistivity A20 {F13.4}
AHT30.OHMM                                             :Array Induction Two Foot Resistivity A30 {F13.4}
AHT60.OHMM                                             :Array Induction Two Foot Resistivity A60 {F13.4}
AHT90.OHMM                                             :Array Induction Two Foot Resistivity A90 {F13.4}
AHTCO60.MM/M                                           :Array Induction Two Foot Conductivity A60 {F13.4}
AHTCO90.MM/M                                           :Array Induction Two Foot Conductivity A90 {F13.4}
DPHZ .CFCF                                             :HRDD Standard Resolution Density Porosity {F13.4}
DSOZ .IN                                               :HRDD Standard Resolution Density Standoff {F13.4}
DT   .US/F                                             :Delta-T {F13.4}
GR   .GAPI                                             :Gamma-Ray {F13.4}
HAZI .DEG                                              :Hole Azimuth {F13.4}
HCAL .IN                                               :HRCC Cal. Caliper {F13.4}
HDRA .G/C3                                             :HRDD Density Correction {F13.4}
HMIN .OHMM                                             :MCFL Micro Inverse Resistivity {F13.4}
HMNO .OHMM                                             :MCFL Micro Normal Resistivity {F13.4}
HTEM .DEGF                                             :HTC Temperature {F13.4}
ITT  .S                                                :Integrated Transit Time {F13.4}
NPOR .CFCF                                             :Enhanced Thermal Neutron Porosity {F13.4}
PEFZ .                                                 :HRDD Standard Resolution Formation Photoelectric Factor {F13.4}
RSOZ .IN                                               :MCFL Standard Resolution Resistivity Standoff {F13.4}
RXOZ .OHMM                                             :MCFL Standard Resolution Invaded Zone Resistivity {F13.4}
SDEV .DEG                                              :Sonde Deviation {F13.4}
SP   .MV                                               :Spontaneous Potential {F13.4}
SPHI .CFCF                                             :Sonic Porosity {F13.4}
RHOZ .G/C3                                             :Bulk Density {F13.4}
#-----------------------------------------------------------------------------
# DEPT       
#     AHT10        AHT20        AHT30        AHT60        AHT90        AHTCO60      
#     AHTCO90      DPHZ         DSOZ         DT           GR           HAZI         
#     HCAL         HDRA         HMIN         HMNO         HTEM         ITT          
#     NPOR         PEFZ         RSOZ         RXOZ         SDEV         SP           
#     SPHI         RHOZ         
~A  
# ...
2463.0
      7.5704       7.9827       8.0379       8.2497       8.3613     121.2163
    119.5980       0.1163       0.2223     111.2000      43.5388     261.3341
      6.8694      -0.0017       6.7433       5.9608      83.2132       0.2100
      0.3199       4.0334       0.0000       9.8033       2.5938      -8.3125
      0.3833       2.4581
2462.5
      8.6878       8.7424       8.8363       9.0486       9.0347     110.5147
    110.6850       0.0971       0.2331     102.9935      42.8453     261.4357
      6.8007      -0.0008      13.7776      12.1685      83.2132       0.2101
      0.2426       4.0165       0.0000      14.2716       2.6035      -6.2500
      0.3263       2.4898
2462.0
     11.3763      11.4661      11.6331      11.9311      11.4917      83.8146
     87.0195       0.0929       0.2350      96.7623      46.3532     261.4076
      6.7549      -0.0007      13.4555      12.5913      83.2132       0.2101
      0.2539       3.9665       0.0320      17.5977       2.6089      -5.2500
      0.2831       2.4968
2461.5
     13.6075      12.9144      13.0320      13.5808      13.1627      73.6335
     75.9721       0.0906       0.2242      90.6338      47.7828     261.1487
      6.7549       0.0017       7.9945       7.4750      83.2132       0.2102
      0.3159       3.9007       0.0513      15.4505       2.6232      -8.0000
      0.2405       2.5005
2461.0
     14.4055      13.7933      14.4192      15.0665      14.2877      66.3726
     69.9901       0.0723       0.2059      83.0183      48.2400     261.1357
      6.7091       0.0053      12.3157      11.1850      83.2132       0.2102
      0.2428       3.7850       0.0337      19.6956       2.6331      -6.0625
      0.1876       2.5307
2460.5
     16.1596      16.8655      18.1426      19.0718      17.8497      52.4334
     56.0235       0.0430       0.1890      77.5936      43.9845     261.2535
      6.5831       0.0084     123.8624     110.9624      83.2132       0.2103
      0.1533       3.6388       0.0114      51.8073       2.6338      -5.3125
      0.1500       2.5791
2460.0
     19.5024      24.0496      24.4096      24.9003      24.1675      40.1602
     41.3778       0.0361       0.1767      71.0873      37.3604     261.5168
      6.4342       0.0044     116.7418     110.3850      83.2132       0.2103
      0.1339       3.5549       0.0186     119.7892       2.6472      -6.5625
      0.1048       2.5905
2459.5
     34.2090      34.0696      32.2096      33.8872      30.8543      29.5097
     32.4104       0.0515       0.1688      64.6353      34.9962     261.5142
      6.4113      -0.0012      24.3266      24.7444      83.2132       0.2103
      0.1791       3.5613       0.0350      44.0216       2.6591      -6.4375
      0.0600       2.5651
2459.0
     29.1017      33.5830      35.5455      33.2268      32.7480      30.0962
     30.5362       0.0670       0.1688      65.6085      35.2461     261.3105
      6.5029      -0.0032      19.1446      17.9184      83.2132       0.2104
      0.2412       3.5898       0.0220      37.4314       2.6673      -6.2500
      0.0667       2.5394
2458.5
     25.7713      25.1608      25.1424      24.8556      25.4241      40.2324
     39.3328       0.0653       0.1817      71.2968      41.0421     261.4937
      6.5029       0.0033      23.2656      21.3094      83.2132       0.2104
      0.2698       3.5618       0.0369      23.5774       2.6790      -6.8750
      0.1062       2.5422
2458.0
     19.6895      20.2173      19.0838      18.7951      18.9529      53.2053
     52.7623       0.0795       0.1911      82.2001      43.8791     261.3999
      6.5258       0.0053       9.9510       9.5780      83.2132       0.2105
      0.2803       3.5731       0.0430      17.6843       2.6929      -6.8750
      0.1819       2.5188
2457.5
     15.4951      14.9180      13.9651      13.7948      14.2043      72.4908
     70.4011       0.0917       0.1949      91.8269      45.8258     261.3408
      6.6862       0.0074       8.7120       7.9464      83.2132       0.2105
      0.3020       3.6513       0.0377      13.4550       2.7036      -9.0000
      0.2488       2.4987
2457.0
     11.5391      11.1206      10.5705      10.4846      10.6407      95.3778
     93.9792       0.0990       0.1855      97.4274      47.5884     261.6499
      6.6633       0.0117      11.5369      10.3059      83.2132       0.2105
      0.3632       3.7954       0.0356      13.2371       2.7189      -8.5000
      0.2877       2.4866
2456.5
      9.2063       9.5320       9.1978       9.1551       9.2758     109.2288
    107.8075       0.0800       0.1700      99.2559      45.2243     261.6507
      6.5487       0.0183      11.0862      10.2478      83.2132       0.2106
      0.3380       3.8915       0.0230      18.7837       2.7174     -10.3750
      0.3004       2.5180
2456.0
      9.4078       9.6945       9.1754       9.2581       9.2801     108.0136
    107.7578       0.0545       0.1511      90.9098      41.0842     261.6895
      6.4342       0.0218      36.5320      32.3442      83.2132       0.2106
      0.1928       3.8517       0.0264      31.0915       2.7217      -8.6250
      0.2424       2.5600
2455.5
     13.5927      13.9961      13.4327      13.5646      13.6670      73.7212
     73.1690       0.0262       0.1415      80.9791      33.9917     261.9045
      6.3884       0.0205     194.4724     173.1445      83.2132       0.2107
      0.1242       3.6304       0.0000     128.8371       2.7260      -8.8750
      0.1735       2.6068
2455.0
     23.5079      24.7772      25.2134      24.1951      24.0535      41.3307
     41.5740      -0.0069       0.1578      70.4689      31.6392     261.6245
      6.4113       0.0242     172.8142     154.3923      83.2132       0.2107
      0.1169       3.3170       0.0134     229.8212       2.7458      -7.4375
      0.1005       2.6613
2454.5
     50.7847      47.0161      41.4078      41.7006      40.7488      23.9805
     24.5406      -0.0009       0.1783      59.8046      35.3521     261.5146
      6.3884       0.0217      90.0904      85.8839      83.2132       0.2107
      0.1184       3.1453       0.0800      67.1431       2.7447      -7.3750
      0.0264       2.6516
2454.0
     52.7108      58.4539      42.8733      38.3063      38.8695      26.1054
     25.7271       0.0364       0.1822      62.7586      38.9133     261.9085
      6.5487       0.0142      10.0969      11.3959      83.2132       0.2108
      0.1853       3.2307       0.1083      26.3679       2.7546      -6.8750
      0.0469       2.5900
2453.5
     42.3004      38.4261      32.5215      32.2547      30.6933      31.0032
     32.5803       0.0912       0.2253      71.7438      40.0214     261.7921
      6.6633       0.0062       9.9953       9.6260      83.2132       0.2108
      0.2791       3.5116       0.1011      18.4931       2.7599      -5.3750
      0.1093       2.4995
2453.0
     24.6579      20.6611      19.5244      19.8438      18.2231      50.3937
     54.8754       0.1205       0.2565      79.3629      37.0818     261.9870
      6.6633       0.0019      15.1318      13.4800      83.2132       0.2109
      0.3119       3.8168       0.0154      17.5841       2.7729      -6.3750
      0.1622       2.4511
2452.5
     17.6134      16.3681      15.8410      16.0228      15.1218      62.4111
     66.1297       0.1082       0.3240      86.8229      35.3201     262.1683
      6.6862       0.0049      15.2615      13.4810      83.2132       0.2109
      0.2827       4.1222       0.0000      21.4659       2.7884      -7.0000
      0.2140       2.4715
2452.0
     16.3457      16.5001      14.9921      15.1335      14.0839      66.0785
     71.0031       0.0926       0.3625      92.2701      35.6320     261.8915
      6.6633      -0.0001      17.2887      15.9116      83.2132       0.2109
      0.2796       4.5052       0.0232      21.2049       2.7972      -9.4375
      0.2519       2.4973
2451.5
     15.2216      15.3836      14.2871      14.3296      13.2504      69.7858
     75.4696       0.0672       0.3832      95.1012      37.1357     261.6371
      6.6403      -0.0025      12.7035      12.3971      83.2132       0.2110
      0.2738       4.9156       0.0382      23.2100       2.8006     -12.1875
      0.2715       2.5390
