~VERSION INFORMATION
VERS.           2.0   :CWLS Log ASCII Standard - VERSION 2.0
WRAP.           YES   :Multiple lines per depth step
PROD.  Schlumberger   :LAS Producer
PROG.  DLIS to ASCII 13C0-300                          :LAS Program name and version
CREA.        2005/06/05 17:52                          :LAS Creation date {YYYY/MM/DD hh:mm}
SOURCE.     MERGE_TLD_MCFL_CNL_046.DLIS                :DLIS File Name
FILE-ID.     MERGE_TLD_MCFL_CNL_046                    :File Identification Number
#--------------------------------------------------
~WELL INFORMATION
#MNEM.UNIT      DATA             DESCRIPTION
#---- ------ --------------   -----------------------------
STRT .F         4647.0       :START DEPTH     
STOP .F         1912.0       :STOP DEPTH     
STEP .F           -0.5       :STEP     
NULL .          -999.25      :NULL VALUE
COMP .        RUTTER AND WILBANKS CORPORATION          :COMPANY
WELL .        AHTNA NO. 1-19 ST#1                      :WELL
FLD  .        COPPER RIVER BASIN WILDCAT               :FIELD
LOC  .        Sec. 19, T4N-R3W CRM                     :LOCATION
CNTY .        VALDEZ CORDOVA                           :COUNTY
STAT .        ALASKA                                   :STATE
CTRY .                                                 :COUNTRY
API  .        500992000500                             :API NUMBER
UWI  .        500992000500                             :UNIQUE WELL ID
DATE .        04-Jun-2005                              :LOG DATE {DD-MMM-YYYY}
SRVC .        Schlumberger                             :SERVICE COMPANY
LATI .DEG                                              :LATITUDE
LONG .DEG                                              :LONGITUDE
GDAT .                                                 :GeoDetic Datum
SECT .        19                                       :Section
RANG .        3W                                       :Range
TOWN .        4N                                       :Township
#-----------------------------------------------------------------------------
~PARAMETER INFORMATION
#MNEM.UNIT    VALUE                      DESCRIPTION
#---- -----   --------------------       ------------------------
RUN  .          ONE                      :RUN NUMBER
PDAT .        GROUND LEVEL               :Permanent Datum
EPD  .F         2018.699951              :Elevation of Permanent Datum above Mean Sea Level
EPD  .F         2018.699951              :Elevation of tool zero above Mean Sea Level
LMF  .          KELLY BUSHING            :Logging Measured From (Name of Logging Elevation Reference)
APD  .F          18.300049               :Elevation of Depth Reference (LMF) above Permanent Datum
#-----------------------------------------------------------------------------
~CURVE INFORMATION
#MNEM.UNIT   API CODE                                  DESCRIPTION
#---- -----  --------                                  -----------------------
DEPT .F                                                :DEPTH (BOREHOLE) {F10.1}
AHT10.OHMM                                             :Array Induction Two Foot Resistivity A10 {F13.4}
AHT20.OHMM                                             :Array Induction Two Foot Resistivity A20 {F13.4}
AHT30.OHMM                                             :Array Induction Two Foot Resistivity A30 {F13.4}
AHT60.OHMM                                             :Array Induction Two Foot Resistivity A60 {F13.4}
AHT90.OHMM                                             :Array Induction Two Foot Resistivity A90 {F13.4}
AHTCO60.MM/M                                           :Array Induction Two Foot Conductivity A60 {F13.4}
AHTCO90.MM/M                                           :Array Induction Two Foot Conductivity A90 {F13.4}
DPHZ .CFCF                                             :HRDD Standard Resolution Density Porosity {F13.4}
DSOZ .IN                                               :HRDD Standard Resolution Density Standoff {F13.4}
DT   .US/F                                             :Delta-T {F13.4}
GR   .GAPI                                             :Gamma-Ray {F13.4}
HAZI .DEG                                              :Hole Azimuth {F13.4}
HCAL .IN                                               :HRCC Cal. Caliper {F13.4}
HDRA .G/C3                                             :HRDD Density Correction {F13.4}
HMIN .OHMM                                             :MCFL Micro Inverse Resistivity {F13.4}
HMNO .OHMM                                             :MCFL Micro Normal Resistivity {F13.4}
HTEM .DEGF                                             :HTC Temperature {F13.4}
ITT  .S                                                :Integrated Transit Time {F13.4}
NPOR .CFCF                                             :Enhanced Thermal Neutron Porosity {F13.4}
PEFZ .                                                 :HRDD Standard Resolution Formation Photoelectric Factor {F13.4}
RSOZ .IN                                               :MCFL Standard Resolution Resistivity Standoff {F13.4}
RXOZ .OHMM                                             :MCFL Standard Resolution Invaded Zone Resistivity {F13.4}
SDEV .DEG                                              :Sonde Deviation {F13.4}
SP   .MV                                               :Spontaneous Potential {F13.4}
SPHI .CFCF                                             :Sonic Porosity {F13.4}
RHOZ .G/C3                                             :Bulk Density {F13.4}
#-----------------------------------------------------------------------------
# DEPT       
#     AHT10        AHT20        AHT30        AHT60        AHT90        AHTCO60      
#     AHTCO90      DPHZ         DSOZ         DT           GR           HAZI         
#     HCAL         HDRA         HMIN         HMNO         HTEM         ITT          
#     NPOR         PEFZ         RSOZ         RXOZ         SDEV         SP           
#     SPHI         RHOZ         
~A  
# ...
3375.0
      4.1489       4.4331       4.5562       4.8096       4.9339     207.9192
    202.6811       0.1759       0.2738     113.4254      35.5595     187.5164
      7.3275      -0.0080       3.1209       2.7690      87.8842       0.1258
      0.4025       3.3017       0.0000       4.0508       1.1505      -0.1250
      0.3988       2.3598
3374.5
      4.0154       4.2697       4.4072       4.6593       4.7388     214.6246
    211.0248       0.1767       0.2646     112.9785      37.5480     187.6894
      7.2817      -0.0110       3.6280       3.2156      87.8842       0.1258
      0.4405       3.2749       0.0000       4.2979       1.1443       1.3750
      0.3957       2.3584
3374.0
      4.1283       4.3357       4.4757       4.7198       4.7910     211.8722
    208.7235       0.1692       0.2604     111.7668      38.3634     187.8771
      7.3046      -0.0112       3.8438       3.4057      87.8842       0.1259
      0.4403       3.2364       0.0000       4.7810       1.1394       1.0000
      0.3873       2.3709
3373.5
      4.2665       4.4839       4.6075       4.8535       4.9165     206.0379
    203.3962       0.1626       0.2639     110.0600      37.9032     187.8856
      7.2817      -0.0086       3.9036       3.4583      87.8842       0.1259
      0.4165       3.2263       0.0000       4.7568       1.1395       1.2500
      0.3754       2.3817
3373.0
      4.3558       4.5557       4.6826       4.9411       4.9927     202.3847
    200.2935       0.1663       0.2715     110.2943      35.4192     187.9749
      7.3046      -0.0063       3.6672       3.2502      87.8842       0.1260
      0.4171       3.2859       0.0000       4.5204       1.1411      -0.1875
      0.3770       2.3755
3372.5
      4.3106       4.5078       4.6549       4.8930       4.9634     204.3741
    201.4756       0.1810       0.2707     110.9852      34.7431     188.3190
      7.3046      -0.0073       3.4897       3.0938      87.8842       0.1261
      0.4404       3.4389       0.0000       4.3319       1.1378      -0.6875
      0.3818       2.3514
3372.0
      4.2704       4.4770       4.5973       4.8561       4.8855     205.9265
    204.6877       0.1901       0.2677     112.8275      39.4587     188.6014
      7.3275      -0.0092       3.3857       3.0022      87.8842       0.1261
      0.4270       3.6378       0.0000       4.1786       1.1331      -1.1875
      0.3946       2.3363
3371.5
      4.2740       4.4270       4.5586       4.8299       4.8311     207.0448
    206.9938       0.1874       0.2714     114.5261      43.5988     189.3476
      7.3733      -0.0094       3.4957       3.0991      87.8842       0.1262
      0.3807       3.7988       0.0000       4.2543       1.1239      -1.7500
      0.4064       2.3408
3371.0
      4.2986       4.4337       4.5882       4.8626       4.8286     205.6528
    207.1008       0.1794       0.2799     114.9698      43.8735     188.2174
      7.4306      -0.0078       3.5002       3.1030      87.8842       0.1262
      0.4326       3.9052       0.0000       4.2982       1.1194      -1.5000
      0.4095       2.3540
3370.5
      4.3164       4.4469       4.5797       4.8385       4.8266     206.6774
    207.1849       0.1680       0.2800     114.6571      39.6180     188.8550
      7.3962      -0.0031       3.4329       3.0438      87.8842       0.1263
      0.4331       3.9564       0.0000       4.3809       1.1226      -1.6875
      0.4073       2.3728
3370.0
      4.3216       4.4261       4.5416       4.8025       4.8060     208.2235
    208.0720       0.1567       0.2651     112.7775      37.3920     189.0552
      7.3161       0.0019       3.7275       3.3033      87.8842       0.1263
      0.4135       3.9704       0.0000       4.6064       1.1006      -1.4375
      0.3943       2.3914
3369.5
      4.3748       4.4952       4.5923       4.8392       4.8591     206.6462
    205.7987       0.1509       0.2426     111.6319      32.8380     189.3367
      7.3046       0.0034       4.0642       3.5997      87.8842       0.1264
      0.4035       3.9557       0.0000       5.0705       1.1063      -0.8125
      0.3863       2.4011
3369.0
      4.4130       4.5631       4.6407       4.8760       4.9112     205.0849
    203.6145       0.1540       0.2353     111.4321      30.7211     189.6348
      7.3504       0.0004       4.3508       3.8520      87.8842       0.1265
      0.4017       3.9201       0.0000       5.0872       1.1085      -1.3750
      0.3849       2.3958
3368.5
      4.3057       4.4853       4.5383       4.7204       4.7967     211.8466
    208.4760       0.1562       0.2448     112.4697      30.7211     190.3282
      7.3504      -0.0011       3.8792       3.4368      87.8842       0.1265
      0.4554       3.8717       0.0000       4.9184       1.1065      -0.8125
      0.3922       2.3922
3368.0
      4.1975       4.3355       4.3967       4.6049       4.6667     217.1597
    214.2855       0.1600       0.2644     115.1462      33.8153     190.2050
      7.3046      -0.0021       3.7326       3.3078      87.8842       0.1266
      0.4165       3.8325       0.0000       4.4201       1.1052      -0.8125
      0.4107       2.3860
3367.5
      4.0685       4.2136       4.2831       4.4644       4.5321     223.9937
    220.6498       0.1593       0.2756     116.2187      39.7320     190.7252
      7.3046      -0.0005       3.2772       2.9067      87.8842       0.1266
      0.3942       3.7743       0.0000       4.2357       1.1002      -0.8125
      0.4182       2.3872
3367.0
      4.0202       4.1416       4.1877       4.3545       4.4328     229.6478
    225.5901       0.1636       0.2757     116.3433      39.8765     190.8033
      7.3390      -0.0017       3.2816       2.9106      87.8842       0.1267
      0.3952       3.6858       0.0000       4.0591       1.0892      -0.3750
      0.4191       2.3800
3366.5
      4.0285       4.1400       4.2219       4.4005       4.4727     227.2490
    223.5784       0.1568       0.2742     117.2623      39.1820     191.3096
      7.3504      -0.0002       3.4193       3.0319      87.8842       0.1267
      0.3955       3.5778       0.0000       4.2602       1.0878      -0.4375
      0.4254       2.3913
3366.0
      4.0356       4.1372       4.2106       4.4568       4.4873     224.3760
    222.8507       0.1468       0.2770     116.4562      37.9927     191.2283
      7.3504       0.0015       3.3168       2.9416      87.8842       0.1268
      0.4273       3.5186       0.0000       4.2829       1.0870      -0.4375
      0.4198       2.4078
3365.5
      4.0639       4.1597       4.2435       4.5057       4.5321     221.9392
    220.6490       0.1366       0.2831     115.6114      38.0846     191.9544
      7.3504       0.0042       3.5246       3.1246      87.8842       0.1269
      0.4180       3.5627       0.0000       4.5114       1.0851      -0.0625
      0.4140       2.4247
3365.0
      4.1294       4.2335       4.3310       4.5570       4.5910     219.4447
    217.8189       0.1367       0.2834     115.2227      38.7900     192.1379
      7.3504       0.0057       3.8451       3.4068      87.8842       0.1269
      0.4001       3.6333       0.0000       4.6095       1.0794      -1.0625
      0.4113       2.4245
3364.5
      4.1848       4.3026       4.3902       4.6237       4.6532     216.2786
    214.9076       0.1452       0.2794     114.0555      34.9974     192.5904
      7.3733       0.0048       3.6219       3.2103      87.8842       0.1270
      0.4067       3.6836       0.0000       4.5331       1.0779       1.2500
      0.4032       2.4104
3364.0
      4.1859       4.2961       4.3808       4.6300       4.6341     215.9847
    215.7924       0.1599       0.2745     113.7874      35.9430     193.0670
      7.3733       0.0010       3.6203       3.2089      87.8842       0.1270
      0.4160       3.7023       0.0000       4.3459       1.0778       0.3750
      0.4013       2.3862
3363.5
      4.1737       4.3020       4.3756       4.6290       4.6423     216.0309
    215.4117       0.1669       0.2769     113.4925      36.9780     192.9788
      7.3962      -0.0012       3.4175       3.0303      87.8842       0.1271
      0.4561       3.7314       0.0000       4.3276       1.0652       0.9375
      0.3993       2.3746
