~VERSION INFORMATION
VERS.           2.0   :CWLS Log ASCII Standard - VERSION 2.0
WRAP.           YES   :Multiple lines per depth step
PROD.  Schlumberger   :LAS Producer
PROG.  DLIS to ASCII 13C0-300                          :LAS Program name and version
CREA.        2005/06/05 17:52                          :LAS Creation date {YYYY/MM/DD hh:mm}
SOURCE.     MERGE_TLD_MCFL_CNL_046.DLIS                :DLIS File Name
FILE-ID.     MERGE_TLD_MCFL_CNL_046                    :File Identification Number
#--------------------------------------------------
~WELL INFORMATION
#MNEM.UNIT      DATA             DESCRIPTION
#---- ------ --------------   -----------------------------
STRT .F         4647.0       :START DEPTH     
STOP .F         1912.0       :STOP DEPTH     
STEP .F           -0.5       :STEP     
NULL .          -999.25      :NULL VALUE
COMP .        RUTTER AND WILBANKS CORPORATION          :COMPANY
WELL .        AHTNA NO. 1-19 ST#1                      :WELL
FLD  .        COPPER RIVER BASIN WILDCAT               :FIELD
LOC  .        Sec. 19, T4N-R3W CRM                     :LOCATION
CNTY .        VALDEZ CORDOVA                           :COUNTY
STAT .        ALASKA                                   :STATE
CTRY .                                                 :COUNTRY
API  .        500992000500                             :API NUMBER
UWI  .        500992000500                             :UNIQUE WELL ID
DATE .        04-Jun-2005                              :LOG DATE {DD-MMM-YYYY}
SRVC .        Schlumberger                             :SERVICE COMPANY
LATI .DEG                                              :LATITUDE
LONG .DEG                                              :LONGITUDE
GDAT .                                                 :GeoDetic Datum
SECT .        19                                       :Section
RANG .        3W                                       :Range
TOWN .        4N                                       :Township
#-----------------------------------------------------------------------------
~PARAMETER INFORMATION
#MNEM.UNIT    VALUE                      DESCRIPTION
#---- -----   --------------------       ------------------------
RUN  .          ONE                      :RUN NUMBER
PDAT .        GROUND LEVEL               :Permanent Datum
EPD  .F         2018.699951              :Elevation of Permanent Datum above Mean Sea Level
EPD  .F         2018.699951              :Elevation of tool zero above Mean Sea Level
LMF  .          KELLY BUSHING            :Logging Measured From (Name of Logging Elevation Reference)
APD  .F          18.300049               :Elevation of Depth Reference (LMF) above Permanent Datum
#-----------------------------------------------------------------------------
~CURVE INFORMATION
#MNEM.UNIT   API CODE                                  DESCRIPTION
#---- -----  --------                                  -----------------------
DEPT .F                                                :DEPTH (BOREHOLE) {F10.1}
AHT10.OHMM                                             :Array Induction Two Foot Resistivity A10 {F13.4}
AHT20.OHMM                                             :Array Induction Two Foot Resistivity A20 {F13.4}
AHT30.OHMM                                             :Array Induction Two Foot Resistivity A30 {F13.4}
AHT60.OHMM                                             :Array Induction Two Foot Resistivity A60 {F13.4}
AHT90.OHMM                                             :Array Induction Two Foot Resistivity A90 {F13.4}
AHTCO60.MM/M                                           :Array Induction Two Foot Conductivity A60 {F13.4}
AHTCO90.MM/M                                           :Array Induction Two Foot Conductivity A90 {F13.4}
DPHZ .CFCF                                             :HRDD Standard Resolution Density Porosity {F13.4}
DSOZ .IN                                               :HRDD Standard Resolution Density Standoff {F13.4}
DT   .US/F                                             :Delta-T {F13.4}
GR   .GAPI                                             :Gamma-Ray {F13.4}
HAZI .DEG                                              :Hole Azimuth {F13.4}
HCAL .IN                                               :HRCC Cal. Caliper {F13.4}
HDRA .G/C3                                             :HRDD Density Correction {F13.4}
HMIN .OHMM                                             :MCFL Micro Inverse Resistivity {F13.4}
HMNO .OHMM                                             :MCFL Micro Normal Resistivity {F13.4}
HTEM .DEGF                                             :HTC Temperature {F13.4}
ITT  .S                                                :Integrated Transit Time {F13.4}
NPOR .CFCF                                             :Enhanced Thermal Neutron Porosity {F13.4}
PEFZ .                                                 :HRDD Standard Resolution Formation Photoelectric Factor {F13.4}
RSOZ .IN                                               :MCFL Standard Resolution Resistivity Standoff {F13.4}
RXOZ .OHMM                                             :MCFL Standard Resolution Invaded Zone Resistivity {F13.4}
SDEV .DEG                                              :Sonde Deviation {F13.4}
SP   .MV                                               :Spontaneous Potential {F13.4}
SPHI .CFCF                                             :Sonic Porosity {F13.4}
RHOZ .G/C3                                             :Bulk Density {F13.4}
#-----------------------------------------------------------------------------
# DEPT       
#     AHT10        AHT20        AHT30        AHT60        AHT90        AHTCO60      
#     AHTCO90      DPHZ         DSOZ         DT           GR           HAZI         
#     HCAL         HDRA         HMIN         HMNO         HTEM         ITT          
#     NPOR         PEFZ         RSOZ         RXOZ         SDEV         SP           
#     SPHI         RHOZ         
~A  
# ...
2283.0
      5.9963       6.1992       6.2282       6.6891       6.8246     149.4977
    146.5284       0.1346       0.2088     113.2148      65.2663     259.8494
      7.3733      -0.0070       5.6218       4.9732      82.1353       0.2268
      0.3564       3.6102       0.0000       6.9041       7.2785      -7.5625
      0.3973       2.4279
2282.5
      6.0449       6.2826       6.3118       6.6946       6.8284     149.3746
    146.4468       0.1300       0.2332     111.1368      66.7066     259.9534
      7.3275      -0.0043       5.7193       5.0590      82.4946       0.2268
      0.3394       3.6421       0.0000       6.8591       7.2830      -8.3125
      0.3829       2.4355
2282.0
      6.1490       6.3510       6.3486       6.7831       7.0321     147.4263
    142.2056       0.1298       0.2442     112.6144      60.8943     259.9747
      7.3275      -0.0025       5.3619       4.7444      82.4946       0.2269
      0.3833       3.7218       0.0000       6.7878       7.2711      -8.6875
      0.3932       2.4358
2281.5
      6.0886       6.3070       6.3069       6.7577       7.0598     147.9800
    141.6474       0.1414       0.2561     116.0949      58.0790     260.0623
      7.3848      -0.0037       5.6045       4.9580      82.4946       0.2269
      0.4240       3.8613       0.0000       6.7074       7.2679      -8.0000
      0.4173       2.4167
2281.0
      5.6906       5.8901       5.9406       6.3535       6.6791     157.3937
    149.7213       0.1508       0.2697     119.7880      63.4949     260.1041
      7.2817      -0.0055       5.2513       4.6471      82.1353       0.2270
      0.4188       4.0337       0.0000       6.2749       7.2913      -8.6875
      0.4430       2.4011
2280.5
      5.3312       5.4573       5.4887       5.8483       6.1486     170.9909
    162.6394       0.1568       0.2811     125.1064      62.0621     260.0563
      7.4421      -0.0027       4.4528       3.9441      82.4946       0.2271
      0.4271       4.2236       0.0000       5.9204       7.2933     -11.1250
      0.4799       2.3912
2280.0
      4.9680       5.1569       5.2136       5.6003       5.8871     178.5632
    169.8626       0.1538       0.2897     128.1461      60.3854     259.9145
      7.4650       0.0024       4.7081       4.1688      82.1353       0.2271
      0.4141       4.3891       0.0000       5.7170       7.2907     -11.3750
      0.5010       2.3963
2279.5
      4.8759       5.0970       5.2083       5.5413       5.8326     180.4628
    171.4488       0.1527       0.2820     130.2485      57.1793     259.9426
      7.4650       0.0054       4.8189       4.2664      82.4946       0.2272
      0.4015       4.5332       0.0000       5.8781       7.2902     -12.3125
      0.5156       2.3981
2279.0
      5.1569       5.3270       5.4548       5.9145       6.2777     169.0762
    159.2940       0.1503       0.2681     129.4371      66.0638     260.0291
      7.4535       0.0037       4.8914       4.3302      82.4946       0.2273
      0.4200       4.6026       0.0000       6.0223       7.2804     -11.3750
      0.5100       2.4021
2278.5
      5.4496       5.6406       5.7977       6.2740       6.5495     159.3882
    152.6825       0.1425       0.2570     125.0354      69.1373     260.1116
      7.3962       0.0014       5.1553       4.5626      82.1353       0.2273
      0.3947       4.6113       0.0000       6.3006       7.2836     -10.5625
      0.4794       2.4149
2278.0
      5.6129       5.8147       5.9845       6.4780       6.7518     154.3683
    148.1078       0.1382       0.2501     120.8593      68.9302     260.2108
      7.3504      -0.0015       5.2253       4.6242      82.1353       0.2274
      0.3764       4.5820       0.0000       6.4751       7.2780     -10.1875
      0.4504       2.4219
2277.5
      5.8096       6.0017       6.2084       6.7836       6.9425     147.4137
    144.0408       0.1334       0.2394     116.4859      64.4601     260.1719
      7.2588      -0.0035       5.1858       4.5894      82.1353       0.2274
      0.3813       4.5379       0.0000       6.4676       7.2845      -7.6250
      0.4200       2.4299
2277.0
      6.0123       6.2126       6.4784       7.0708       7.1824     141.4268
    139.2296       0.1266       0.2192     114.3164      60.2046     260.0504
      7.2588      -0.0037       5.1881       4.5914      82.1353       0.2275
      0.4030       4.4270       0.0000       6.5500       7.2886      -9.0625
      0.4050       2.4411
2276.5
      6.2119       6.4245       6.6655       7.3153       7.3104     136.6993
    136.7923       0.1178       0.2043     111.7231      55.8575     259.9783
      7.2588      -0.0032       5.7156       5.0558      82.1353       0.2276
      0.3570       4.2322       0.0000       7.1159       7.2964      -6.1875
      0.3870       2.4556
2276.0
      6.5119       6.7930       7.0509       7.7175       7.5724     129.5757
    132.0580       0.1126       0.2134     107.9911      55.5994     259.9474
      7.2703      -0.0038       6.4069       5.6646      82.1353       0.2276
      0.3191       4.0124       0.0000       7.3194       7.2839      -5.1875
      0.3610       2.4642
2275.5
      7.0803       7.3471       7.6192       8.2844       7.9879     120.7083
    125.1898       0.1211       0.2280     106.4152      59.1456     260.0127
      7.2588      -0.0073       5.5878       4.9433      82.1353       0.2277
      0.3748       3.8949       0.0000       7.0933       7.2694      -6.6250
      0.3501       2.4502
2275.0
      7.2728       7.6496       7.8545       8.3606       8.1960     119.6093
    122.0110       0.1283       0.2414     105.7001      62.0437     260.1476
      7.2130      -0.0098       5.4098       4.7866      82.1353       0.2277
      0.3704       3.8816       0.0000       6.6989       7.2713      -5.7500
      0.3451       2.4383
2274.5
      7.1904       7.4753       7.6169       8.0702       7.9409     123.9126
    125.9302       0.1297       0.2518     106.7733      60.6252     260.2473
      7.2130      -0.0097       5.5086       4.8736      82.1353       0.2278
      0.3531       3.8898       0.0000       6.7264       7.2848      -5.0625
      0.3526       2.4360
2274.0
      7.0852       7.3355       7.4520       7.9200       7.8043     126.2623
    128.1341       0.1211       0.2690     108.8331      60.2844     260.1168
      7.1901      -0.0065       5.5612       4.9199      82.1353       0.2278
      0.3963       3.8539       0.0000       6.8651       7.2818      -5.2500
      0.3669       2.4501
2273.5
      6.9428       7.1997       7.3410       7.8280       7.6728     127.7459
    130.3307       0.1118       0.2828     108.0123      59.7089     260.0820
      7.2817      -0.0017       5.5944       4.9491      82.1353       0.2279
      0.3819       3.7875       0.0000       6.9688       7.2898      -3.1250
      0.3612       2.4655
2273.0
      7.0914       7.3073       7.4436       7.9356       7.7738     126.0146
    128.6376       0.1088       0.2772     107.3821      64.2256     259.9406
      7.2817      -0.0002       5.6698       5.0155      82.1353       0.2279
      0.3500       3.7391       0.0000       7.0313       7.2863      -6.0625
      0.3568       2.4705
2272.5
      7.3703       7.6320       7.7508       8.2671       8.1001     120.9619
    123.4556       0.1133       0.2680     106.7449      65.0335     259.9898
      7.2588      -0.0025       5.6827       5.0268      82.1353       0.2280
      0.3392       3.7548       0.0000       7.2758       7.2752      -4.3125
      0.3524       2.4630
2272.0
      7.5952       7.8937       7.9965       8.5750       8.3886     116.6182
    119.2087       0.1239       0.2619     105.4665      65.0552     260.0815
      7.2588      -0.0067       6.0500       5.3502      82.1353       0.2280
      0.3351       3.8354       0.0000       7.2284       7.2759      -4.0000
      0.3435       2.4455
2271.5
      7.8210       8.0939       8.1791       8.8580       8.6247     112.8917
    115.9465       0.1317       0.2615     105.5778      67.5060     260.2216
      7.2130      -0.0080       5.6862       5.0299      82.1353       0.2281
      0.3512       3.9661       0.0000       7.1043       7.2810      -3.3125
      0.3443       2.4327
