~VERSION INFORMATION
VERS.           2.0   :CWLS Log ASCII Standard - VERSION 2.0
WRAP.           YES   :Multiple lines per depth step
PROD.  Schlumberger   :LAS Producer
PROG.  DLIS to ASCII 13C0-300                          :LAS Program name and version
CREA.        2005/06/05 17:52                          :LAS Creation date {YYYY/MM/DD hh:mm}
SOURCE.     MERGE_TLD_MCFL_CNL_046.DLIS                :DLIS File Name
FILE-ID.     MERGE_TLD_MCFL_CNL_046                    :File Identification Number
#--------------------------------------------------
~WELL INFORMATION
#MNEM.UNIT      DATA             DESCRIPTION
#---- ------ --------------   -----------------------------
STRT .F         4647.0       :START DEPTH     
STOP .F         1912.0       :STOP DEPTH     
STEP .F           -0.5       :STEP     
NULL .          -999.25      :NULL VALUE
COMP .        RUTTER AND WILBANKS CORPORATION          :COMPANY
WELL .        AHTNA NO. 1-19 ST#1                      :WELL
FLD  .        COPPER RIVER BASIN WILDCAT               :FIELD
LOC  .        Sec. 19, T4N-R3W CRM                     :LOCATION
CNTY .        VALDEZ CORDOVA                           :COUNTY
STAT .        ALASKA                                   :STATE
CTRY .                                                 :COUNTRY
API  .        500992000500                             :API NUMBER
UWI  .        500992000500                             :UNIQUE WELL ID
DATE .        04-Jun-2005                              :LOG DATE {DD-MMM-YYYY}
SRVC .        Schlumberger                             :SERVICE COMPANY
LATI .DEG                                              :LATITUDE
LONG .DEG                                              :LONGITUDE
GDAT .                                                 :GeoDetic Datum
SECT .        19                                       :Section
RANG .        3W                                       :Range
TOWN .        4N                                       :Township
#-----------------------------------------------------------------------------
~PARAMETER INFORMATION
#MNEM.UNIT    VALUE                      DESCRIPTION
#---- -----   --------------------       ------------------------
RUN  .          ONE                      :RUN NUMBER
PDAT .        GROUND LEVEL               :Permanent Datum
EPD  .F         2018.699951              :Elevation of Permanent Datum above Mean Sea Level
EPD  .F         2018.699951              :Elevation of tool zero above Mean Sea Level
LMF  .          KELLY BUSHING            :Logging Measured From (Name of Logging Elevation Reference)
APD  .F          18.300049               :Elevation of Depth Reference (LMF) above Permanent Datum
#-----------------------------------------------------------------------------
~CURVE INFORMATION
#MNEM.UNIT   API CODE                                  DESCRIPTION
#---- -----  --------                                  -----------------------
DEPT .F                                                :DEPTH (BOREHOLE) {F10.1}
AHT10.OHMM                                             :Array Induction Two Foot Resistivity A10 {F13.4}
AHT20.OHMM                                             :Array Induction Two Foot Resistivity A20 {F13.4}
AHT30.OHMM                                             :Array Induction Two Foot Resistivity A30 {F13.4}
AHT60.OHMM                                             :Array Induction Two Foot Resistivity A60 {F13.4}
AHT90.OHMM                                             :Array Induction Two Foot Resistivity A90 {F13.4}
AHTCO60.MM/M                                           :Array Induction Two Foot Conductivity A60 {F13.4}
AHTCO90.MM/M                                           :Array Induction Two Foot Conductivity A90 {F13.4}
DPHZ .CFCF                                             :HRDD Standard Resolution Density Porosity {F13.4}
DSOZ .IN                                               :HRDD Standard Resolution Density Standoff {F13.4}
DT   .US/F                                             :Delta-T {F13.4}
GR   .GAPI                                             :Gamma-Ray {F13.4}
HAZI .DEG                                              :Hole Azimuth {F13.4}
HCAL .IN                                               :HRCC Cal. Caliper {F13.4}
HDRA .G/C3                                             :HRDD Density Correction {F13.4}
HMIN .OHMM                                             :MCFL Micro Inverse Resistivity {F13.4}
HMNO .OHMM                                             :MCFL Micro Normal Resistivity {F13.4}
HTEM .DEGF                                             :HTC Temperature {F13.4}
ITT  .S                                                :Integrated Transit Time {F13.4}
NPOR .CFCF                                             :Enhanced Thermal Neutron Porosity {F13.4}
PEFZ .                                                 :HRDD Standard Resolution Formation Photoelectric Factor {F13.4}
RSOZ .IN                                               :MCFL Standard Resolution Resistivity Standoff {F13.4}
RXOZ .OHMM                                             :MCFL Standard Resolution Invaded Zone Resistivity {F13.4}
SDEV .DEG                                              :Sonde Deviation {F13.4}
SP   .MV                                               :Spontaneous Potential {F13.4}
SPHI .CFCF                                             :Sonic Porosity {F13.4}
RHOZ .G/C3                                             :Bulk Density {F13.4}
#-----------------------------------------------------------------------------
# DEPT       
#     AHT10        AHT20        AHT30        AHT60        AHT90        AHTCO60      
#     AHTCO90      DPHZ         DSOZ         DT           GR           HAZI         
#     HCAL         HDRA         HMIN         HMNO         HTEM         ITT          
#     NPOR         PEFZ         RSOZ         RXOZ         SDEV         SP           
#     SPHI         RHOZ         
~A  
4647.0
      7.9474       7.7832       7.8743       8.1251       8.2127     123.0750
    121.7627       0.0779       0.5004      98.7544      24.9570     128.7225
      5.5180      -0.0056       4.1154       3.9625      88.6028       0.0000
      0.6244       4.3179       0.1670       6.0978       3.2970       0.0000
      0.2969       2.5215
4646.5
      7.9475       7.7832       7.8747       8.1248       8.2141     123.0797
    121.7420       0.0850       0.4983      98.7544      24.9570     128.7238
      5.5180      -0.0122       4.1155       3.9624      88.6028       0.0001
      0.6244       4.4494       0.1669       6.0968       3.2970       0.3125
      0.2969       2.5097
4646.0
      7.9477       7.7831       7.8750       8.1245       8.2156     123.0838
    121.7204       0.0990       0.4944      98.7544      24.9570     128.7252
      5.5294      -0.0229       4.1158       3.9625      88.6028       0.0001
      0.6241       4.6198       0.1668       6.0968       3.2970       0.6875
      0.2969       2.4866
4645.5
      7.9477       7.7831       7.8753       8.1243       8.2171     123.0874
    121.6980       0.1127       0.4903      98.7544      24.9570     128.7413
      5.5180      -0.0325       4.1162       3.9626      88.6028       0.0002
      0.6244       4.8119       0.1669       6.0967       3.2976       1.3125
      0.2969       2.4640
4645.0
      7.9478       7.7831       7.8756       8.1242       8.2186     123.0886
    121.6747       0.1324       0.4825      98.7544      24.9570     128.7595
      5.5180      -0.0553       4.1142       3.9616      88.6028       0.0002
      0.6244       5.0141       0.1669       6.0967       3.2979       0.5000
      0.2969       2.4315
4644.5
      7.9481       7.7835       7.8761       8.1241       8.2202     123.0906
    121.6515       0.1484       0.4745      98.7544      24.9570     128.7668
      5.5180      -0.0746       4.1157       3.9624      88.6028       0.0003
      0.6244       5.2139       0.1669       6.0970       3.2983       1.0625
      0.2969       2.4051
4644.0
      7.9488       7.7845       7.8766       8.1238       8.2224     123.0957
    121.6183       0.1621       0.4669      98.7544      24.9570     128.7762
      5.5409      -0.0930       4.1172       3.9633      88.6028       0.0003
      0.6238       5.4329       0.1667       6.0974       3.2992       0.3125
      0.2969       2.3825
4643.5
      7.9500       7.7866       7.8770       8.1234       8.2245     123.1006
    121.5879       0.1628       0.4630      98.7544      24.9570     128.7896
      5.5180      -0.0904       4.1172       3.9634      88.6028       0.0004
      0.6244       5.6778       0.1668       6.0979       3.3003      -0.3125
      0.2969       2.3813
4643.0
      7.9526       7.7906       7.8776       8.1236       8.2271     123.0981
    121.5500       0.1622       0.4562      98.7544      24.9570     128.8051
      5.5180      -0.0847       4.1160       3.9631      88.6028       0.0004
      0.6244       5.9448       0.1668       6.0982       3.3025      -0.3125
      0.2969       2.3823
4642.5
      7.9580       7.7974       7.8778       8.1232       8.2283     123.1040
    121.5311       0.1601       0.4470      98.7544      24.9570     128.8202
      5.5180      -0.0770       4.1157       3.9628      88.6028       0.0005
      0.6244       6.2086       0.1669       6.0980       3.3027      -0.3750
      0.2969       2.3858
4642.0
      7.9684       7.8075       7.8778       8.1221       8.2292     123.1215
    121.5190       0.1595       0.4377      98.7544      24.9570     128.8277
      5.5180      -0.0710       4.1153       3.9625      88.6028       0.0005
      0.6244       6.4443       0.1669       6.0979       3.3028       0.2500
      0.2969       2.3869
4641.5
      7.9872       7.8202       7.8778       8.1204       8.2319     123.1463
    121.4782       0.1601       0.4322      98.7544      24.9570     128.8267
      5.5180      -0.0707       4.1163       3.9630      88.6028       0.0006
      0.5812       6.6401       0.1668       6.0976       3.3017       0.1875
      0.2969       2.3859
4641.0
      8.0141       7.8326       7.8797       8.1285       8.2373     123.0244
    121.3993       0.1686       0.4256      98.7544      24.9570     128.8297
      5.5180      -0.0743       4.1178       3.9638      88.6028       0.0006
      0.5531       6.8165       0.1667       6.0985       3.3031       0.5000
      0.2969       2.3718
4640.5
      8.0450       7.8406       7.8813       8.1370       8.2443     122.8949
    121.2961       0.1713       0.4188      98.7544      24.9570     128.8307
      5.5294      -0.0768       4.1175       3.9641      88.6028       0.0007
      0.5629       6.9976       0.1668       6.0981       3.3051       0.6250
      0.2969       2.3674
4640.0
      8.0709       7.8394       7.8831       8.1505       8.2493     122.6916
    121.2231       0.1702       0.4116      98.7544      24.9570     128.8056
      5.5180      -0.0724       4.1162       3.9630      88.6028       0.0007
      0.4928       7.1832       0.1669       6.0981       3.3021       0.5000
      0.2969       2.3692
4639.5
      8.0843       7.8323       7.8826       8.1545       8.2506     122.6319
    121.2030       0.1667       0.4095      98.7544      24.9570     128.7574
      5.4950      -0.0704       4.1164       3.9631      88.6028       0.0008
      0.4668       7.3445       0.1669       6.0969       3.3039       0.6250
      0.2969       2.3750
4639.0
      8.0840       7.8210       7.8859       8.1660       8.2621     122.4590
    121.0341       0.1664       0.4084      98.7544      24.9570     128.7178
      5.5294      -0.0672       4.1167       3.9629      88.6028       0.0008
      0.4510       7.4641       0.1667       6.0966       3.3066       1.3125
      0.2969       2.3755
4638.5
      8.0704       7.8064       7.8838       8.1636       8.2582     122.4944
    121.0914       0.1684       0.4073      98.7544      24.9570     128.6987
      5.5134      -0.0667       4.1170       3.9629      88.6028       0.0009
      0.4295       7.5537       0.1667       6.0963       3.3039       2.9375
      0.2969       2.3722
4638.0
      8.0424       7.7863       7.8858       8.1550       8.2584     122.6235
    121.0887       0.1687       0.4022      98.7544      24.9570     128.6551
      5.5225      -0.0634       4.1169       3.9631      88.6028       0.0009
      0.4258       7.6547       0.1667       6.0969       3.3062       2.3125
      0.2969       2.3717
4637.5
      8.0203       7.7797       7.8886       8.1523       8.2786     122.6655
    120.7926       0.1680       0.3977      98.7544      24.9570     128.6085
      5.5180      -0.0614       4.1174       3.9636      88.6028       0.0010
      0.4129       7.7705       0.1668       6.0977       3.3056       2.9375
      0.2969       2.3728
4637.0
      7.9962       7.7633       7.8773       8.1362       8.2644     122.9071
    121.0005       0.1691       0.3951      98.7544      24.9570     128.5478
      5.5180      -0.0589       4.1172       3.9637      88.6028       0.0010
      0.4269       7.9001       0.1668       6.0981       3.3068       3.3125
      0.2969       2.3709
4636.5
      7.9887       7.7757       7.8802       8.1211       8.2748     123.1356
    120.8482       0.1678       0.3969      98.7544      24.9570     128.4528
      5.5180      -0.0543       4.1170       3.9636      88.6028       0.0011
      0.4282       8.0243       0.1669       6.0989       3.3081       3.7500
      0.2969       2.3732
4636.0
      7.9858       7.7802       7.8933       8.1266       8.3054     123.0530
    120.4034       0.1657       0.3981      98.7544      24.9570     128.4140
      5.5332      -0.0491       4.1177       3.9644      88.6028       0.0011
      0.4698       8.1417       0.1667       6.1001       3.3084       3.6250
      0.2969       2.3765
4635.5
      7.9978       7.7907       7.8984       8.1359       8.3268     122.9126
    120.0947       0.1622       0.3882      98.7544      24.9570     128.3501
      5.5409      -0.0423       4.1216       3.9672      88.6028       0.0012
      0.4655       8.2676       0.1666       6.1040       3.3067       3.8125
      0.2969       2.3823
