~VERSION INFORMATION
VERS.           2.0   :CWLS Log ASCII Standard - VERSION 2.0
WRAP.           YES   :Multiple lines per depth step
PROD.  Schlumberger   :LAS Producer
PROG.  DLIS to ASCII 13C0-300                          :LAS Program name and version
CREA.        2005/06/05 17:52                          :LAS Creation date {YYYY/MM/DD hh:mm}
SOURCE.     MERGE_TLD_MCFL_CNL_046.DLIS                :DLIS File Name
FILE-ID.     MERGE_TLD_MCFL_CNL_046                    :File Identification Number
#--------------------------------------------------
~WELL INFORMATION
#MNEM.UNIT      DATA             DESCRIPTION
#---- ------ --------------   -----------------------------
STRT .F         4647.0       :START DEPTH     
STOP .F         1912.0       :STOP DEPTH     
STEP .F           -0.5       :STEP     
NULL .          -999.25      :NULL VALUE
COMP .        RUTTER AND WILBANKS CORPORATION          :COMPANY
WELL .        AHTNA NO. 1-19 ST#1                      :WELL
FLD  .        COPPER RIVER BASIN WILDCAT               :FIELD
LOC  .        Sec. 19, T4N-R3W CRM                     :LOCATION
CNTY .        VALDEZ CORDOVA                           :COUNTY
STAT .        ALASKA                                   :STATE
CTRY .                                                 :COUNTRY
API  .        500992000500                             :API NUMBER
UWI  .        500992000500                             :UNIQUE WELL ID
DATE .        04-Jun-2005                              :LOG DATE {DD-MMM-YYYY}
SRVC .        Schlumberger                             :SERVICE COMPANY
LATI .DEG                                              :LATITUDE
LONG .DEG                                              :LONGITUDE
GDAT .                                                 :GeoDetic Datum
SECT .        19                                       :Section
RANG .        3W                                       :Range
TOWN .        4N                                       :Township
#-----------------------------------------------------------------------------
~PARAMETER INFORMATION
#MNEM.UNIT    VALUE                      DESCRIPTION
#---- -----   --------------------       ------------------------
RUN  .          ONE                      :RUN NUMBER
PDAT .        GROUND LEVEL               :Permanent Datum
EPD  .F         2018.699951              :Elevation of Permanent Datum above Mean Sea Level
EPD  .F         2018.699951              :Elevation of tool zero above Mean Sea Level
LMF  .          KELLY BUSHING            :Logging Measured From (Name of Logging Elevation Reference)
APD  .F          18.300049               :Elevation of Depth Reference (LMF) above Permanent Datum
#-----------------------------------------------------------------------------
~CURVE INFORMATION
#MNEM.UNIT   API CODE                                  DESCRIPTION
#---- -----  --------                                  -----------------------
DEPT .F                                                :DEPTH (BOREHOLE) {F10.1}
AHT10.OHMM                                             :Array Induction Two Foot Resistivity A10 {F13.4}
AHT20.OHMM                                             :Array Induction Two Foot Resistivity A20 {F13.4}
AHT30.OHMM                                             :Array Induction Two Foot Resistivity A30 {F13.4}
AHT60.OHMM                                             :Array Induction Two Foot Resistivity A60 {F13.4}
AHT90.OHMM                                             :Array Induction Two Foot Resistivity A90 {F13.4}
AHTCO60.MM/M                                           :Array Induction Two Foot Conductivity A60 {F13.4}
AHTCO90.MM/M                                           :Array Induction Two Foot Conductivity A90 {F13.4}
DPHZ .CFCF                                             :HRDD Standard Resolution Density Porosity {F13.4}
DSOZ .IN                                               :HRDD Standard Resolution Density Standoff {F13.4}
DT   .US/F                                             :Delta-T {F13.4}
GR   .GAPI                                             :Gamma-Ray {F13.4}
HAZI .DEG                                              :Hole Azimuth {F13.4}
HCAL .IN                                               :HRCC Cal. Caliper {F13.4}
HDRA .G/C3                                             :HRDD Density Correction {F13.4}
HMIN .OHMM                                             :MCFL Micro Inverse Resistivity {F13.4}
HMNO .OHMM                                             :MCFL Micro Normal Resistivity {F13.4}
HTEM .DEGF                                             :HTC Temperature {F13.4}
ITT  .S                                                :Integrated Transit Time {F13.4}
NPOR .CFCF                                             :Enhanced Thermal Neutron Porosity {F13.4}
PEFZ .                                                 :HRDD Standard Resolution Formation Photoelectric Factor {F13.4}
RSOZ .IN                                               :MCFL Standard Resolution Resistivity Standoff {F13.4}
RXOZ .OHMM                                             :MCFL Standard Resolution Invaded Zone Resistivity {F13.4}
SDEV .DEG                                              :Sonde Deviation {F13.4}
SP   .MV                                               :Spontaneous Potential {F13.4}
SPHI .CFCF                                             :Sonic Porosity {F13.4}
RHOZ .G/C3                                             :Bulk Density {F13.4}
#-----------------------------------------------------------------------------
# DEPT       
#     AHT10        AHT20        AHT30        AHT60        AHT90        AHTCO60      
#     AHTCO90      DPHZ         DSOZ         DT           GR           HAZI         
#     HCAL         HDRA         HMIN         HMNO         HTEM         ITT          
#     NPOR         PEFZ         RSOZ         RXOZ         SDEV         SP           
#     SPHI         RHOZ         
~A  
# ...
3735.0
      3.8352       3.9103       3.9287       3.9577       4.0178     252.6743
    248.8920       0.1606       0.0266     116.0092      48.9739     162.1056
      6.4342      -0.0075       3.3539       2.9739      88.9621       0.0886
      0.4629       6.0278       0.0000       4.3103       2.9890       2.6875
      0.4167       2.3851
3734.5
      4.0750       4.1514       4.1752       4.1911       4.2593     238.6001
    234.7798       0.1613       0.0177     116.1138      49.2648     162.0127
      6.4227      -0.0054       3.7320       3.3066      88.9621       0.0886
      0.4796       5.8835       0.0000       4.4689       2.9852       2.6250
      0.4175       2.3838
3734.0
      4.1729       4.2214       4.2387       4.2743       4.3087     233.9588
    232.0862       0.1562       0.0074     116.2440      52.6135     161.8899
      6.4342      -0.0026       3.2228       2.8582      88.9621       0.0887
      0.4609       5.6078       0.0000       4.1140       3.0046       1.5000
      0.4184       2.3922
3733.5
      3.9535       3.9996       4.0226       4.0590       4.0989     246.3661
    243.9690       0.1487       0.0191     116.8504      57.5967     161.8091
      6.4342      -0.0016       3.1632       2.8056      88.9621       0.0887
      0.4738       5.4974       0.0000       3.8522       2.9810       1.6250
      0.4226       2.4047
3733.0
      3.8285       3.8662       3.8717       3.9332       3.9263     254.2466
    254.6911       0.1418       0.0217     116.2809      58.9790     161.6594
      6.4571      -0.0001       3.3203       2.9440      88.9621       0.0888
      0.4191       5.4443       0.0000       4.0803       2.9919       1.6875
      0.4186       2.4161
3732.5
      3.8952       3.9298       3.9420       3.9784       3.9769     251.3560
    251.4541       0.1422       0.0148     115.9152      58.9247     161.5276
      6.4571       0.0010       3.5992       3.1897      88.9621       0.0889
      0.4330       5.3893       0.0000       4.2311       2.9818       1.6250
      0.4161       2.4154
3732.0
      3.9131       3.9749       3.9962       4.0218       3.9795     248.6473
    251.2863       0.1435       0.0026     115.6310      52.0936     161.5794
      6.4800       0.0014       3.4929       3.0960      88.9621       0.0889
      0.4787       5.3632       0.0000       4.2541       2.9981       1.0625
      0.4141       2.4132
3731.5
      3.8253       3.9124       3.9742       3.9972       3.9143     250.1779
    255.4739       0.1179       0.0185     109.0720      47.1114     161.3408
      6.4800       0.0041       3.3992       3.0135      88.9621       0.0890
      0.4444       5.5586       0.0000       5.1124       2.9718       1.2500
      0.3686       2.4554
3731.0
      4.3837       4.4164       4.5129       4.5149       4.3950     221.4904
    227.5314       0.0817       0.0340      97.1957      37.6603     161.1106
      6.5029       0.0051       7.1329       6.3025      88.9621       0.0890
      0.3125       6.0143       0.0000       8.6717       2.9755       2.0625
      0.2861       2.5152
3730.5
      6.5284       6.4199       6.6054       6.5576       6.1260     152.4940
    163.2391       0.0570       0.0340      93.5701      38.0506     161.1761
      6.4800       0.0018      12.8870      15.1911      88.9621       0.0891
      0.2462       6.5747       0.0916      15.2124       3.0005       2.1875
      0.2609       2.5559
3730.0
      9.4102       8.6798       8.9778       9.0034       8.3559     111.0690
    119.6755       0.0464       0.0251      84.9767      34.9485     161.1448
      6.4571      -0.0030       5.2788       5.4519      88.9621       0.0891
      0.2979       6.9597       0.1074      14.8123       2.9847       1.6250
      0.2012       2.5735
3729.5
     11.2022      10.2914      10.6727      10.5095       9.5543      95.1523
    104.6649       0.0369       0.0334      77.8640      34.1205     160.9121
      6.4800      -0.0015      11.7193      10.6033      88.9621       0.0892
      0.2235       6.9832       0.0599      16.0337       2.9814       2.2500
      0.1518       2.5891
3729.0
     16.8380      14.4682      13.9918      13.4658      12.0374      74.2621
     83.0741       0.0408       0.0377      82.1170      30.7950     160.9083
      6.4571       0.0016      81.9890      77.9389      88.9621       0.0892
      0.1584       6.6504       0.0121      17.0173       2.9916       0.8750
      0.1814       2.5827
3728.5
     11.9078      11.3948      11.0595      10.8299       9.9079      92.3370
    100.9293       0.0747       0.0390      85.3789      30.5992     160.8005
      6.4800       0.0008       6.2805       5.6205      88.9621       0.0892
      0.2950       6.4352       0.0399       7.7456       2.9933       2.0000
      0.2040       2.5268
3728.0
      5.5940       5.6857       5.6565       5.5913       5.4463     178.8489
    183.6094       0.1252       0.0214      98.5140      40.3283     160.5089
      6.5716      -0.0044       3.3390       2.9612      88.9621       0.0893
      0.5299       6.5031       0.0200       4.9164       2.9831       1.0625
      0.2952       2.4435
3727.5
      4.0081       4.1275       4.1020       4.0423       3.9738     247.3866
    251.6481       0.1659       0.0558     110.5019      48.8393     160.4611
      6.5716      -0.0083       3.6825       3.2630      88.9621       0.0893
      0.4810       6.8253       0.0000       4.2950       2.9963       2.0000
      0.3785       2.3762
3727.0
      3.8297       3.9159       3.8123       3.7584       3.7401     266.0729
    267.3737       0.1807       0.0999     116.1553      51.3233     160.3223
      6.5945      -0.0084       3.5632       3.1579      88.9621       0.0894
      0.4794       6.9236       0.0000       4.4720       2.9997       1.3125
      0.4177       2.3518
3726.5
      3.8583       3.9502       3.8310       3.7881       3.7846     263.9877
    264.2296       0.1827       0.1372     115.6455      50.4800     160.3395
      6.5945      -0.0071       3.4864       3.0903      88.9621       0.0895
      0.4362       6.7070       0.0000       4.2579       2.9965       1.7500
      0.4142       2.3486
3726.0
      3.7606       3.8209       3.7347       3.7100       3.7425     269.5450
    267.2023       0.1735       0.0985     115.3377      46.9512     160.1723
      6.5716      -0.0050       3.3430       2.9641      88.9621       0.0895
      0.4313       6.3379       0.0000       4.2291       2.9937       2.6875
      0.4121       2.3637
3725.5
      3.6658       3.7264       3.6631       3.6658       3.7011     272.7897
    270.1910       0.1682       0.0457     115.0957      52.1081     159.9963
      6.5831      -0.0050       3.3625       2.9812      88.9621       0.0896
      0.4577       6.2151       0.0000       4.2288       2.9922       2.6875
      0.4104       2.3725
3725.0
      3.7547       3.8312       3.7804       3.8216       3.8527     261.6697
    259.5576       0.1659       0.0132     116.1382      52.5374     159.9525
      6.5945      -0.0062       3.4231       3.0345      88.9621       0.0896
      0.4358       6.3946       0.0000       4.1154       3.0068       2.6250
      0.4176       2.3763
3724.5
      3.7522       3.8430       3.8228       3.8938       3.9357     256.8204
    254.0845       0.1623       0.0394     117.0496      51.3541     159.5304
      6.5716      -0.0039       3.1358       2.7815      88.9621       0.0897
      0.4434       6.6979       0.0000       4.0186       3.0077       3.6875
      0.4240       2.3821
3724.0
      3.6430       3.7574       3.7575       3.8555       3.8895     259.3695
    257.1037       0.1746       0.0478     117.7290      49.2860     159.4140
      6.5945      -0.0044       3.2293       2.8639      88.9621       0.0897
      0.4320       6.7916       0.0000       3.8693       3.0159       2.7500
      0.4287       2.3620
3723.5
      3.7110       3.8296       3.8238       3.9259       3.9654     254.7159
    252.1796       0.1832       0.0370     118.8152      51.5630     159.2932
      6.6174      -0.0041       3.1977       2.8360      88.9621       0.0898
      0.4191       6.6132       0.0000       3.9669       3.0096       2.9375
      0.4362       2.3478
