~VERSION INFORMATION
VERS.           2.0   :CWLS Log ASCII Standard - VERSION 2.0
WRAP.           YES   :Multiple lines per depth step
PROD.  Schlumberger   :LAS Producer
PROG.  DLIS to ASCII 13C0-300                          :LAS Program name and version
CREA.        2005/06/05 17:52                          :LAS Creation date {YYYY/MM/DD hh:mm}
SOURCE.     MERGE_TLD_MCFL_CNL_046.DLIS                :DLIS File Name
FILE-ID.     MERGE_TLD_MCFL_CNL_046                    :File Identification Number
#--------------------------------------------------
~WELL INFORMATION
#MNEM.UNIT      DATA             DESCRIPTION
#---- ------ --------------   -----------------------------
STRT .F         4647.0       :START DEPTH     
STOP .F         1912.0       :STOP DEPTH     
STEP .F           -0.5       :STEP     
NULL .          -999.25      :NULL VALUE
COMP .        RUTTER AND WILBANKS CORPORATION          :COMPANY
WELL .        AHTNA NO. 1-19 ST#1                      :WELL
FLD  .        COPPER RIVER BASIN WILDCAT               :FIELD
LOC  .        Sec. 19, T4N-R3W CRM                     :LOCATION
CNTY .        VALDEZ CORDOVA                           :COUNTY
STAT .        ALASKA                                   :STATE
CTRY .                                                 :COUNTRY
API  .        500992000500                             :API NUMBER
UWI  .        500992000500                             :UNIQUE WELL ID
DATE .        04-Jun-2005                              :LOG DATE {DD-MMM-YYYY}
SRVC .        Schlumberger                             :SERVICE COMPANY
LATI .DEG                                              :LATITUDE
LONG .DEG                                              :LONGITUDE
GDAT .                                                 :GeoDetic Datum
SECT .        19                                       :Section
RANG .        3W                                       :Range
TOWN .        4N                                       :Township
#-----------------------------------------------------------------------------
~PARAMETER INFORMATION
#MNEM.UNIT    VALUE                      DESCRIPTION
#---- -----   --------------------       ------------------------
RUN  .          ONE                      :RUN NUMBER
PDAT .        GROUND LEVEL               :Permanent Datum
EPD  .F         2018.699951              :Elevation of Permanent Datum above Mean Sea Level
EPD  .F         2018.699951              :Elevation of tool zero above Mean Sea Level
LMF  .          KELLY BUSHING            :Logging Measured From (Name of Logging Elevation Reference)
APD  .F          18.300049               :Elevation of Depth Reference (LMF) above Permanent Datum
#-----------------------------------------------------------------------------
~CURVE INFORMATION
#MNEM.UNIT   API CODE                                  DESCRIPTION
#---- -----  --------                                  -----------------------
DEPT .F                                                :DEPTH (BOREHOLE) {F10.1}
AHT10.OHMM                                             :Array Induction Two Foot Resistivity A10 {F13.4}
AHT20.OHMM                                             :Array Induction Two Foot Resistivity A20 {F13.4}
AHT30.OHMM                                             :Array Induction Two Foot Resistivity A30 {F13.4}
AHT60.OHMM                                             :Array Induction Two Foot Resistivity A60 {F13.4}
AHT90.OHMM                                             :Array Induction Two Foot Resistivity A90 {F13.4}
AHTCO60.MM/M                                           :Array Induction Two Foot Conductivity A60 {F13.4}
AHTCO90.MM/M                                           :Array Induction Two Foot Conductivity A90 {F13.4}
DPHZ .CFCF                                             :HRDD Standard Resolution Density Porosity {F13.4}
DSOZ .IN                                               :HRDD Standard Resolution Density Standoff {F13.4}
DT   .US/F                                             :Delta-T {F13.4}
GR   .GAPI                                             :Gamma-Ray {F13.4}
HAZI .DEG                                              :Hole Azimuth {F13.4}
HCAL .IN                                               :HRCC Cal. Caliper {F13.4}
HDRA .G/C3                                             :HRDD Density Correction {F13.4}
HMIN .OHMM                                             :MCFL Micro Inverse Resistivity {F13.4}
HMNO .OHMM                                             :MCFL Micro Normal Resistivity {F13.4}
HTEM .DEGF                                             :HTC Temperature {F13.4}
ITT  .S                                                :Integrated Transit Time {F13.4}
NPOR .CFCF                                             :Enhanced Thermal Neutron Porosity {F13.4}
PEFZ .                                                 :HRDD Standard Resolution Formation Photoelectric Factor {F13.4}
RSOZ .IN                                               :MCFL Standard Resolution Resistivity Standoff {F13.4}
RXOZ .OHMM                                             :MCFL Standard Resolution Invaded Zone Resistivity {F13.4}
SDEV .DEG                                              :Sonde Deviation {F13.4}
SP   .MV                                               :Spontaneous Potential {F13.4}
SPHI .CFCF                                             :Sonic Porosity {F13.4}
RHOZ .G/C3                                             :Bulk Density {F13.4}
#-----------------------------------------------------------------------------
# DEPT       
#     AHT10        AHT20        AHT30        AHT60        AHT90        AHTCO60      
#     AHTCO90      DPHZ         DSOZ         DT           GR           HAZI         
#     HCAL         HDRA         HMIN         HMNO         HTEM         ITT          
#     NPOR         PEFZ         RSOZ         RXOZ         SDEV         SP           
#     SPHI         RHOZ         
~A  
# ...
2103.0
     65.6853      79.4065      80.2912      67.4574      39.6815      14.8242
     25.2007       0.0219       0.2873      62.7113      26.3746     262.7128
      6.8465       0.0024      92.2185      81.8976      81.4167       0.2455
      0.1283       2.7723       0.0000      93.8798       7.0605     -14.0000
      0.0466       2.6139
2102.5
     65.4806      64.7773     102.9864      89.9688      50.6886      11.1150
     19.7283       0.0425       0.2958      60.7235      27.6084     262.6299
      6.8923       0.0028      29.5079      28.4862      81.4167       0.2456
      0.1617       2.8374       0.0398      40.8693       7.0546     -14.7500
      0.0328       2.5798
2102.0
     61.3281      72.8276      76.3078      66.5473      56.7034      15.0269
     17.6356       0.0786       0.2942      69.4995      28.5662     262.6166
      7.1672       0.0029      12.5545      12.8992      81.4167       0.2456
      0.2518       3.0836       0.0709      25.7836       7.0549     -13.8125
      0.0937       2.5203
2101.5
     35.2744      39.0285      33.9704      32.8590      33.9387      30.4331
     29.4649       0.1136       0.2828      80.6257      35.7636     262.5600
      6.9725       0.0051      12.1954      12.1836      81.4167       0.2456
      0.2997       3.3932       0.0839      19.2931       7.0409     -16.6875
      0.1710       2.4625
2101.0
     22.3003      24.8179      22.4580      23.9169      25.1873      41.8115
     39.7025       0.1358       0.2755      89.1600      39.8578     262.5725
      6.9610       0.0068      12.0103      11.4533      81.0574       0.2457
      0.3193       3.6384       0.0569      18.2299       7.0480     -19.0625
      0.2303       2.4259
2100.5
     16.6072      20.8230      17.7057      18.5056      21.4597      54.0378
     46.5990       0.1492       0.2705      97.8669      44.8356     262.5190
      7.0297       0.0064      12.9664      11.7058      81.0574       0.2457
      0.2853       3.7850       0.0301      16.9682       7.0468     -18.0625
      0.2907       2.4038
2100.0
     13.9165      15.8697      14.8317      15.7642      18.6042      63.4350
     53.7512       0.1514       0.2736     104.2935      40.2962     262.5946
      7.1328       0.0045      13.0225      11.5088      81.4167       0.2458
      0.2872       3.8534       0.0030      16.7945       7.0519     -20.2500
      0.3354       2.4002
2099.5
     12.0708      13.5726      12.8473      13.8809      16.3927      72.0417
     61.0026       0.1542       0.2791     105.2727      39.1005     262.5314
      7.1672       0.0039      13.2710      11.7209      81.0574       0.2458
      0.2877       3.9540       0.0000      16.6701       7.0513     -22.1250
      0.3422       2.3956
2099.0
     12.0478      12.7476      12.7635      14.3078      17.3825      69.8918
     57.5290       0.1485       0.2839     105.8846      37.0458     262.6239
      7.1443       0.0051      13.6341      12.0416      81.0574       0.2459
      0.2906       4.1045       0.0000      17.1752       7.0524     -23.5625
      0.3464       2.4050
2098.5
     12.1729      13.0936      13.2364      15.5959      18.2713      64.1194
     54.7305       0.1430       0.2824     106.1602      39.5944     262.5727
      7.0985       0.0064      13.9664      12.3371      81.0574       0.2460
      0.3059       4.2589       0.0000      17.3531       7.0541     -21.8125
      0.3483       2.4140
2098.0
     12.2024      13.0621      13.4049      15.3620      18.1864      65.0958
     54.9860       0.1416       0.2716     105.9054      41.2458     262.5665
      7.0068       0.0034      13.8753      12.2548      81.0574       0.2460
      0.3145       4.3531       0.0000      17.3286       7.0426     -22.1250
      0.3466       2.4163
2097.5
     12.0528      12.7299      13.3870      15.4349      17.8374      64.7881
     56.0620       0.1497       0.2597     105.6447      38.5594     262.5100
      7.0068      -0.0035      13.8698      12.2499      81.0574       0.2461
      0.3022       4.3487       0.0000      17.3510       7.0336     -19.3750
      0.3448       2.4030
2097.0
     12.0116      12.4314      13.1772      15.1730      16.9642      65.9064
     58.9476       0.1605       0.2525     105.5969      40.3433     262.6332
      7.0985      -0.0096      14.0540      12.4126      81.0574       0.2461
      0.2755       4.3137       0.0000      17.3315       7.0414     -20.6250
      0.3444       2.3852
2096.5
     11.9496      12.0867      12.8670      14.6851      15.8546      68.0964
     63.0733       0.1611       0.2584     105.0419      38.7043     262.7203
      7.1214      -0.0097      13.7119      12.1104      81.0574       0.2462
      0.3164       4.2587       0.0000      17.4428       7.0469     -22.0000
      0.3406       2.3842
2096.0
     11.9223      11.7245      12.5238      14.1988      14.8827      70.4285
     67.1923       0.1535       0.2658     104.0815      42.0017     262.8466
      7.2817      -0.0057      13.9086      12.2841      81.0574       0.2462
      0.2991       4.2175       0.0000      17.6191       7.0354     -21.0625
      0.3339       2.3967
2095.5
     11.7685      11.5982      12.4099      13.8446      14.0799      72.2301
     71.0234       0.1492       0.2684     103.3965      40.3602     262.8242
      7.2359      -0.0045      14.4801      12.7890      81.0574       0.2463
      0.3067       4.1628       0.0000      17.8699       7.0420     -20.1875
      0.3291       2.4038
2095.0
     11.7769      11.5352      12.1652      13.2469      13.1477      75.4892
     76.0591       0.1502       0.2684     103.0738      40.1114     262.8963
      7.1214      -0.0064      14.3428      12.6677      81.0574       0.2463
      0.3003       4.1247       0.0000      18.0207       7.0368     -23.8750
      0.3269       2.4021
2094.5
     11.7363      11.4874      11.9192      12.6499      12.3617      79.0522
     80.8947       0.1558       0.2682     102.5940      33.4973     262.8865
      7.2130      -0.0099      14.1105      12.4625      81.0574       0.2464
      0.2724       4.1195       0.0000      17.5789       7.0337     -22.8125
      0.3236       2.3929
2094.0
     11.8398      11.5717      11.8430      12.4396      12.1037      80.3884
     82.6193       0.1449       0.2707     101.9296      32.6310     263.0186
      7.1786      -0.0073      14.1573      12.5039      81.0574       0.2464
      0.2867       4.1148       0.0000      18.9590       7.0329     -24.1875
      0.3190       2.4110
2093.5
     12.2315      12.0799      12.2141      12.5870      12.2078      79.4472
     81.9147       0.1246       0.2740      98.7194      35.1522     263.0967
      7.1672      -0.0035      17.7713      15.7012      81.0574       0.2465
      0.2522       4.0639       0.0000      20.8115       7.0296     -25.3125
      0.2967       2.4443
2093.0
     12.8364      12.6214      12.4985      12.5948      12.1027      79.3975
     82.6261       0.1057       0.2778      94.5569      39.8750     263.2531
      7.2015      -0.0008      18.4464      16.2987      81.0574       0.2465
      0.2047       3.9627       0.0000      22.6475       7.0382     -20.9375
      0.2678       2.4755
2092.5
     13.7212      13.4865      13.2585      13.1486      12.5506      76.0539
     79.6774       0.1055       0.2766      88.9751      43.4323     263.3739
      7.2130      -0.0012      16.2549      14.3593      81.0574       0.2466
      0.2406       3.8778       0.0000      19.0303       7.0378     -19.0625
      0.2290       2.4759
2092.0
     14.0740      13.8928      13.5989      13.2729      12.9403      75.3412
     77.2778       0.1238       0.2606      88.5633      45.8759     263.5043
      7.1672      -0.0027      11.1314       9.8784      81.0574       0.2466
      0.2722       3.8452       0.0000      14.9878       7.0355     -13.8750
      0.2261       2.4458
2091.5
     12.8242      12.5257      12.3582      12.1139      12.0007      82.5495
     83.3285       0.1456       0.2586      94.9427      49.4332     263.5267
      7.1557      -0.0040       9.4902       8.4119      81.0574       0.2467
      0.3099       3.8680       0.0012      12.2360       7.0221     -15.3125
      0.2704       2.4097
