~VERSION INFORMATION
VERS.           2.0   :CWLS Log ASCII Standard - VERSION 2.0
WRAP.           YES   :Multiple lines per depth step
PROD.  Schlumberger   :LAS Producer
PROG.  DLIS to ASCII 13C0-300                          :LAS Program name and version
CREA.        2005/06/05 17:52                          :LAS Creation date {YYYY/MM/DD hh:mm}
SOURCE.     MERGE_TLD_MCFL_CNL_046.DLIS                :DLIS File Name
FILE-ID.     MERGE_TLD_MCFL_CNL_046                    :File Identification Number
#--------------------------------------------------
~WELL INFORMATION
#MNEM.UNIT      DATA             DESCRIPTION
#---- ------ --------------   -----------------------------
STRT .F         4647.0       :START DEPTH     
STOP .F         1912.0       :STOP DEPTH     
STEP .F           -0.5       :STEP     
NULL .          -999.25      :NULL VALUE
COMP .        RUTTER AND WILBANKS CORPORATION          :COMPANY
WELL .        AHTNA NO. 1-19 ST#1                      :WELL
FLD  .        COPPER RIVER BASIN WILDCAT               :FIELD
LOC  .        Sec. 19, T4N-R3W CRM                     :LOCATION
CNTY .        VALDEZ CORDOVA                           :COUNTY
STAT .        ALASKA                                   :STATE
CTRY .                                                 :COUNTRY
API  .        500992000500                             :API NUMBER
UWI  .        500992000500                             :UNIQUE WELL ID
DATE .        04-Jun-2005                              :LOG DATE {DD-MMM-YYYY}
SRVC .        Schlumberger                             :SERVICE COMPANY
LATI .DEG                                              :LATITUDE
LONG .DEG                                              :LONGITUDE
GDAT .                                                 :GeoDetic Datum
SECT .        19                                       :Section
RANG .        3W                                       :Range
TOWN .        4N                                       :Township
#-----------------------------------------------------------------------------
~PARAMETER INFORMATION
#MNEM.UNIT    VALUE                      DESCRIPTION
#---- -----   --------------------       ------------------------
RUN  .          ONE                      :RUN NUMBER
PDAT .        GROUND LEVEL               :Permanent Datum
EPD  .F         2018.699951              :Elevation of Permanent Datum above Mean Sea Level
EPD  .F         2018.699951              :Elevation of tool zero above Mean Sea Level
LMF  .          KELLY BUSHING            :Logging Measured From (Name of Logging Elevation Reference)
APD  .F          18.300049               :Elevation of Depth Reference (LMF) above Permanent Datum
#-----------------------------------------------------------------------------
~CURVE INFORMATION
#MNEM.UNIT   API CODE                                  DESCRIPTION
#---- -----  --------                                  -----------------------
DEPT .F                                                :DEPTH (BOREHOLE) {F10.1}
AHT10.OHMM                                             :Array Induction Two Foot Resistivity A10 {F13.4}
AHT20.OHMM                                             :Array Induction Two Foot Resistivity A20 {F13.4}
AHT30.OHMM                                             :Array Induction Two Foot Resistivity A30 {F13.4}
AHT60.OHMM                                             :Array Induction Two Foot Resistivity A60 {F13.4}
AHT90.OHMM                                             :Array Induction Two Foot Resistivity A90 {F13.4}
AHTCO60.MM/M                                           :Array Induction Two Foot Conductivity A60 {F13.4}
AHTCO90.MM/M                                           :Array Induction Two Foot Conductivity A90 {F13.4}
DPHZ .CFCF                                             :HRDD Standard Resolution Density Porosity {F13.4}
DSOZ .IN                                               :HRDD Standard Resolution Density Standoff {F13.4}
DT   .US/F                                             :Delta-T {F13.4}
GR   .GAPI                                             :Gamma-Ray {F13.4}
HAZI .DEG                                              :Hole Azimuth {F13.4}
HCAL .IN                                               :HRCC Cal. Caliper {F13.4}
HDRA .G/C3                                             :HRDD Density Correction {F13.4}
HMIN .OHMM                                             :MCFL Micro Inverse Resistivity {F13.4}
HMNO .OHMM                                             :MCFL Micro Normal Resistivity {F13.4}
HTEM .DEGF                                             :HTC Temperature {F13.4}
ITT  .S                                                :Integrated Transit Time {F13.4}
NPOR .CFCF                                             :Enhanced Thermal Neutron Porosity {F13.4}
PEFZ .                                                 :HRDD Standard Resolution Formation Photoelectric Factor {F13.4}
RSOZ .IN                                               :MCFL Standard Resolution Resistivity Standoff {F13.4}
RXOZ .OHMM                                             :MCFL Standard Resolution Invaded Zone Resistivity {F13.4}
SDEV .DEG                                              :Sonde Deviation {F13.4}
SP   .MV                                               :Spontaneous Potential {F13.4}
SPHI .CFCF                                             :Sonic Porosity {F13.4}
RHOZ .G/C3                                             :Bulk Density {F13.4}
#-----------------------------------------------------------------------------
# DEPT       
#     AHT10        AHT20        AHT30        AHT60        AHT90        AHTCO60      
#     AHTCO90      DPHZ         DSOZ         DT           GR           HAZI         
#     HCAL         HDRA         HMIN         HMNO         HTEM         ITT          
#     NPOR         PEFZ         RSOZ         RXOZ         SDEV         SP           
#     SPHI         RHOZ         
~A  
# ...
3915.0
      2.8030       2.8437       2.8456       2.8913       2.8752     345.8633
    347.7971       0.1633       0.2643     123.7844      49.3715     163.2441
      6.7014       0.0139       2.6455       2.3493      89.6808       0.0673
      0.4299       5.9105       0.0000       3.1923       3.9710       1.1875
      0.4707       2.3806
3914.5
      2.7572       2.7770       2.7853       2.8314       2.8141     353.1781
    355.3479       0.1649       0.2785     123.6017      50.0337     163.3338
      6.6976       0.0123       2.6433       2.3474      89.6808       0.0674
      0.4704       5.6409       0.0000       3.2254       3.9750       1.2500
      0.4695       2.3779
3914.0
      2.7198       2.7217       2.7400       2.7908       2.7666     358.3242
    361.4529       0.1791       0.2974     123.4728      53.0471     163.3246
      6.7205       0.0015       2.6331       2.3384      89.6808       0.0674
      0.4614       5.6210       0.0000       3.2102       3.9604       2.3125
      0.4686       2.3545
3913.5
      2.6824       2.6890       2.7103       2.7705       2.7333     360.9440
    365.8532       0.1708       0.3357     122.6898      50.0824     163.3759
      6.7396      -0.0059       2.5888       2.2993      89.6808       0.0675
      0.4425       5.8473       0.0000       3.2373       3.9620       1.5000
      0.4631       2.3682
3913.0
      2.7471       2.7619       2.7647       2.8427       2.7782     351.7823
    359.9434       0.1246       0.3963     122.0553      46.6399     163.4382
      6.7396      -0.0026       2.6689       2.3699      89.6808       0.0675
      0.4273       6.1677       0.0000       3.4197       3.9701       2.3125
      0.4587       2.4443
3912.5
      3.0587       3.0571       3.0816       3.1742       3.1314     315.0351
    319.3489       0.1097       0.4248     116.7422      42.9245     163.4739
      6.7434      -0.0140       3.6477       3.2321      89.6808       0.0676
      0.3990       6.5842       0.0201       4.3959       3.9648       0.8750
      0.4218       2.4691
3912.0
      3.5615       3.6044       3.5828       3.6750       3.6693     272.1107
    272.5292       0.1122       0.3873     115.3125      43.6338     163.4968
      6.7549      -0.0157       4.6143       4.3277      89.6808       0.0677
      0.3156       7.0223       0.0510       4.7323       3.9622       0.5625
      0.4119       2.4649
3911.5
      3.3832       3.4535       3.4580       3.5145       3.5213     284.5375
    283.9863       0.1553       0.2748     114.8842      44.4617     163.6192
      6.7778      -0.0194       3.1200       2.7671      89.6808       0.0677
      0.3638       7.2528       0.0430       4.3218       3.9616       0.5625
      0.4089       2.3937
3911.0
      2.9531       3.0320       3.0144       3.0627       3.1420     326.5069
    318.2721       0.1688       0.1798     118.9898      46.4723     163.6834
      6.8350       0.0023       2.7863       2.4734      89.6808       0.0678
      0.4389       7.1174       0.0000       3.4104       3.9541       1.6250
      0.4374       2.3714
3910.5
      2.7425       2.7771       2.7932       2.8326       2.9032     353.0321
    344.4431       0.1839       0.1192     124.8849      47.1815     163.7950
      6.8236       0.0179       2.5587       2.2728      89.6808       0.0678
      0.4750       6.7248       0.0000       3.2200       3.9505       1.9375
      0.4784       2.3466
3910.0
      2.6086       2.6075       2.6032       2.6351       2.7500     379.4955
    363.6404       0.2000       0.0725     126.7899      46.7084     163.6887
      6.8236       0.0218       2.5528       2.2676      89.6808       0.0679
      0.4844       6.5596       0.0000       3.0841       3.9445       1.3125
      0.4916       2.3200
3909.5
      2.5102       2.4738       2.4779       2.4957       2.5915     400.6875
    385.8785       0.2155       0.0297     128.1675      44.2247     163.8383
      6.8236       0.0159       2.4235       2.1536      89.6808       0.0680
      0.4407       6.5238       0.0000       3.0039       3.9476       1.5000
      0.5012       2.2943
3909.0
      2.4778       2.3881       2.4034       2.4256       2.4748     412.2711
    404.0658       0.2200       0.0000     128.1727      44.5883     163.8232
      6.8236       0.0137       2.3838       2.1185      89.6808       0.0680
      0.4301       6.7272       0.0000       2.9215       3.9478       1.1875
      0.5012       2.2869
3908.5
      2.4226       2.3388       2.3523       2.4065       2.3744     415.5468
    421.1593       0.2100       0.0000     128.1184      47.7719     163.9592
      6.8465       0.0107       2.3117       2.0549      89.6808       0.0681
      0.5013       6.9955       0.0000       2.9490       3.9449       2.6875
      0.5008       2.3034
3908.0
      2.4269       2.3284       2.3338       2.4009       2.2769     416.5177
    439.1950       0.1889       0.0080     127.0286      52.7393     164.0192
      6.8541       0.0080       2.4667       2.1917      89.6808       0.0682
      0.5273       7.2856       0.0000       3.1326       3.9345       2.3750
      0.4933       2.3383
3907.5
      2.6282       2.4897       2.4931       2.5167       2.3234     397.3478
    430.3970       0.1524       0.0373     115.1258      49.6643     163.9438
      6.8580      -0.0003       3.4708       3.0763      89.6808       0.0682
      0.5167       7.3499       0.0000       4.8615       3.9314       1.3750
      0.4106       2.3986
3907.0
      3.4044       3.1931       3.1849       3.1876       2.8326     313.7119
    353.0310       0.0988       0.0673      96.2477      40.3305     163.9831
      6.8312       0.0034      16.0702      14.1997      89.6808       0.0683
      0.3613       6.9882       0.0000      10.2514       3.9284       0.6875
      0.2795       2.4870
3906.5
      5.2173       4.9053       4.7008       4.5605       3.8067     219.2737
    262.6961       0.0542       0.0861      79.7174      31.2189     163.9825
      6.7434       0.0045      55.8409      49.5319      89.6808       0.0683
      0.1832       6.5343       0.0000      70.1339       3.9235       0.0000
      0.1647       2.5605
3906.0
      7.1898       6.6603       6.1664       5.6867       4.6031     175.8501
    217.2435       0.0494       0.0995      71.1136      30.9823     164.0925
      6.7091       0.0086     155.3337     138.2597      89.6808       0.0683
      0.1729       6.1013       0.0000      36.4350       3.9165       0.6875
      0.1050       2.5685
3905.5
      5.1946       4.8949       4.6932       4.2788       3.6204     233.7108
    276.2135       0.0852       0.1186      81.9838      38.9065     164.0855
      6.7091       0.0140       7.1864       6.4583      89.6808       0.0684
      0.3332       5.8120       0.0000       7.7830       3.9162      -0.0625
      0.1804       2.5095
3905.0
      3.3991       3.3399       3.1719       3.0515       2.9188     327.7032
    342.6033       0.1427       0.1552      97.9744      47.4175     164.1495
      6.7778       0.0126       2.7445       2.4366      89.6808       0.0684
      0.5241       5.6008       0.0000       4.1629       3.9097       0.0000
      0.2915       2.4146
3904.5
      2.8596       2.8519       2.7288       2.6663       2.5824     375.0581
    387.2426       0.1823       0.1782     115.8633      50.2560     164.1585
      6.7892       0.0045       2.5528       2.2676      89.6808       0.0685
      0.5147       5.4842       0.0000       3.2119       3.8996       1.6875
      0.4157       2.3492
3904.0
      2.8113       2.8215       2.7267       2.6534       2.6388     376.8811
    378.9650       0.1919       0.1810     124.5182      49.5042     164.1967
      6.7778      -0.0036       2.5705       2.2832      89.6808       0.0686
      0.4555       5.4208       0.0000       3.2117       3.8966       0.5625
      0.4758       2.3334
3903.5
      2.8596       2.7968       2.7059       2.6220       2.7507     381.3855
    363.5447       0.1856       0.1624     122.4560      51.5137     164.2240
      6.7854      -0.0045       2.7022       2.3994      89.6808       0.0686
      0.4445       5.4413       0.0000       3.2784       3.8958       3.4375
      0.4615       2.3438
