~VERSION INFORMATION
VERS.           2.0   :CWLS Log ASCII Standard - VERSION 2.0
WRAP.           YES   :Multiple lines per depth step
PROD.  Schlumberger   :LAS Producer
PROG.  DLIS to ASCII 13C0-300                          :LAS Program name and version
CREA.        2005/06/05 17:52                          :LAS Creation date {YYYY/MM/DD hh:mm}
SOURCE.     MERGE_TLD_MCFL_CNL_046.DLIS                :DLIS File Name
FILE-ID.     MERGE_TLD_MCFL_CNL_046                    :File Identification Number
#--------------------------------------------------
~WELL INFORMATION
#MNEM.UNIT      DATA             DESCRIPTION
#---- ------ --------------   -----------------------------
STRT .F         4647.0       :START DEPTH     
STOP .F         1912.0       :STOP DEPTH     
STEP .F           -0.5       :STEP     
NULL .          -999.25      :NULL VALUE
COMP .        RUTTER AND WILBANKS CORPORATION          :COMPANY
WELL .        AHTNA NO. 1-19 ST#1                      :WELL
FLD  .        COPPER RIVER BASIN WILDCAT               :FIELD
LOC  .        Sec. 19, T4N-R3W CRM                     :LOCATION
CNTY .        VALDEZ CORDOVA                           :COUNTY
STAT .        ALASKA                                   :STATE
CTRY .                                                 :COUNTRY
API  .        500992000500                             :API NUMBER
UWI  .        500992000500                             :UNIQUE WELL ID
DATE .        04-Jun-2005                              :LOG DATE {DD-MMM-YYYY}
SRVC .        Schlumberger                             :SERVICE COMPANY
LATI .DEG                                              :LATITUDE
LONG .DEG                                              :LONGITUDE
GDAT .                                                 :GeoDetic Datum
SECT .        19                                       :Section
RANG .        3W                                       :Range
TOWN .        4N                                       :Township
#-----------------------------------------------------------------------------
~PARAMETER INFORMATION
#MNEM.UNIT    VALUE                      DESCRIPTION
#---- -----   --------------------       ------------------------
RUN  .          ONE                      :RUN NUMBER
PDAT .        GROUND LEVEL               :Permanent Datum
EPD  .F         2018.699951              :Elevation of Permanent Datum above Mean Sea Level
EPD  .F         2018.699951              :Elevation of tool zero above Mean Sea Level
LMF  .          KELLY BUSHING            :Logging Measured From (Name of Logging Elevation Reference)
APD  .F          18.300049               :Elevation of Depth Reference (LMF) above Permanent Datum
#-----------------------------------------------------------------------------
~CURVE INFORMATION
#MNEM.UNIT   API CODE                                  DESCRIPTION
#---- -----  --------                                  -----------------------
DEPT .F                                                :DEPTH (BOREHOLE) {F10.1}
AHT10.OHMM                                             :Array Induction Two Foot Resistivity A10 {F13.4}
AHT20.OHMM                                             :Array Induction Two Foot Resistivity A20 {F13.4}
AHT30.OHMM                                             :Array Induction Two Foot Resistivity A30 {F13.4}
AHT60.OHMM                                             :Array Induction Two Foot Resistivity A60 {F13.4}
AHT90.OHMM                                             :Array Induction Two Foot Resistivity A90 {F13.4}
AHTCO60.MM/M                                           :Array Induction Two Foot Conductivity A60 {F13.4}
AHTCO90.MM/M                                           :Array Induction Two Foot Conductivity A90 {F13.4}
DPHZ .CFCF                                             :HRDD Standard Resolution Density Porosity {F13.4}
DSOZ .IN                                               :HRDD Standard Resolution Density Standoff {F13.4}
DT   .US/F                                             :Delta-T {F13.4}
GR   .GAPI                                             :Gamma-Ray {F13.4}
HAZI .DEG                                              :Hole Azimuth {F13.4}
HCAL .IN                                               :HRCC Cal. Caliper {F13.4}
HDRA .G/C3                                             :HRDD Density Correction {F13.4}
HMIN .OHMM                                             :MCFL Micro Inverse Resistivity {F13.4}
HMNO .OHMM                                             :MCFL Micro Normal Resistivity {F13.4}
HTEM .DEGF                                             :HTC Temperature {F13.4}
ITT  .S                                                :Integrated Transit Time {F13.4}
NPOR .CFCF                                             :Enhanced Thermal Neutron Porosity {F13.4}
PEFZ .                                                 :HRDD Standard Resolution Formation Photoelectric Factor {F13.4}
RSOZ .IN                                               :MCFL Standard Resolution Resistivity Standoff {F13.4}
RXOZ .OHMM                                             :MCFL Standard Resolution Invaded Zone Resistivity {F13.4}
SDEV .DEG                                              :Sonde Deviation {F13.4}
SP   .MV                                               :Spontaneous Potential {F13.4}
SPHI .CFCF                                             :Sonic Porosity {F13.4}
RHOZ .G/C3                                             :Bulk Density {F13.4}
#-----------------------------------------------------------------------------
# DEPT       
#     AHT10        AHT20        AHT30        AHT60        AHT90        AHTCO60      
#     AHTCO90      DPHZ         DSOZ         DT           GR           HAZI         
#     HCAL         HDRA         HMIN         HMNO         HTEM         ITT          
#     NPOR         PEFZ         RSOZ         RXOZ         SDEV         SP           
#     SPHI         RHOZ         
~A  
# ...
1923.0
      4.2808      12.6602       7.2893       7.1902       7.7673     139.0776
    128.7447      -0.3021       0.6965     113.5839      47.3337     118.9602
      8.3812       0.3058       7.0969       6.2734      80.3387       0.2639
      0.4067      10.0000       0.0000       9.0822       1.0083     -13.6250
      0.3999       3.1484
1922.5
      4.0094      11.8905       7.8670       9.2424      10.0287     108.1966
     99.7142      -0.2985       0.7534     111.2191      41.4112     108.6377
      8.3354       0.2740       7.6219       6.7362      80.3387       0.2639
      0.4063      10.0000       0.0000       9.2890       0.9920     -13.9375
      0.3835       3.1425
1922.0
      3.5527       8.7568       8.1265      11.1510      10.7349      89.6779
     93.1538      -0.3759       0.8266     108.9840      37.1340     106.8872
      8.3125       0.3400       7.4197       6.5580      80.3387       0.2640
      0.4221      10.0000       0.0000       8.4624       1.1035     -16.8125
      0.3679       3.2702
1921.5
      3.0254       5.9765       7.1263       7.4772       7.9932     133.7398
    125.1063      -0.5032       0.8701     108.5908      34.2587      98.0211
      8.3354       0.5014       5.6746       5.0206      80.3387       0.2640
      0.3952      10.0000       0.0000       7.7305       1.0014     -19.0000
      0.3652       3.4803
1921.0
      2.5555       4.3704       7.0992       8.1061       8.4339     123.3633
    118.5690      -0.5263       0.8776     111.9697      33.5619      94.3489
      8.6103       0.5453       5.9463       5.2597      80.3387       0.2641
      0.4566      10.0000       0.0000       7.8511       1.1459     -16.2500
      0.3887       3.5183
1920.5
      2.2587       3.5554       7.8705      10.2869      10.2211      97.2111
     97.8366      -0.3606       0.8496     143.6179      30.2419      87.9570
      8.2209       0.3648       7.4525       6.7950      80.3387       0.2642
      0.4094      10.0000       0.0954       9.4535       1.0968     -15.4375
      0.6085       3.2450
1920.0
      2.0738       3.1368       7.5360       8.5811       8.9894     116.5354
    111.2427      -0.1841       0.8275     143.0993      34.1522      82.5978
      8.1521       0.1178       6.0828       6.5737      80.3387       0.2642
      0.4108      10.0000       0.1186      11.8823       1.2322     -13.1875
      0.6049       2.9538
1919.5
      1.9446       2.9445       7.4834       8.6282       8.9458     115.8986
    111.7842      -0.0881       0.8106     140.1950      36.0311      83.4818
      8.1521       0.0079       7.1665       7.1470      80.3387       0.2643
      0.4332      10.0000       0.2376       9.3436       1.1983     -11.8125
      0.5847       2.7954
1919.0
      1.8591       2.8998       7.5762       8.6608       9.1137     115.4622
    109.7246      -0.0803       0.7802     116.8865      42.4561      75.5313
      8.1521       0.0072       3.7999       3.9918      80.3387       0.2644
      0.3996      10.0000       0.2527       8.3824       1.2462      -9.7500
      0.4228       2.7825
1918.5
      1.7976       2.9305       7.5692       8.7750       9.1901     113.9600
    108.8133      -0.0349       0.7410     114.0821      40.6736      79.5657
      8.4270       0.0027       4.5051       4.7993      80.3387       0.2644
      0.3798      10.0000       0.2982       7.9138       1.2272      -8.3125
      0.4033       2.7075
1918.0
      1.7480       2.9836       7.5795       8.5521       9.1967     116.9309
    108.7351      -0.0027       0.7105     111.7065      38.3760      72.9207
      8.3354      -0.0223       6.0925       6.2802      80.3387       0.2645
      0.3507      10.0000       0.2343       9.6946       1.1462      -7.6875
      0.3869       2.6545
1917.5
      1.7077       3.0279       7.5839       8.5618       9.2131     116.7975
    108.5410      -0.0195       0.7021     107.5474      34.3586      71.1973
      8.1063      -0.0211       5.5455       5.8493      80.3387       0.2645
      0.3486      10.0000       0.2614      10.2104       1.1689      -6.0625
      0.3580       2.6822
1917.0
      1.6750       3.0510       7.5718       8.5294       9.2266     117.2415
    108.3821      -0.0649       0.7160     105.8711      37.7824      63.9416
      7.9231      -0.0124       4.4663       5.0996      80.3387       0.2646
      0.3417      10.0000       0.2947       9.8889       1.0633      -4.5000
      0.3463       2.7570
1916.5
      1.6504       3.0555       7.5606       8.5067       9.1966     117.5543
    108.7360      -0.1537       0.7566     103.8584      37.9644      58.7634
      7.9002       0.0565       4.7318       5.1994      80.3387       0.2646
      0.3392      10.0000       0.3426       9.2607       1.1418      -4.3750
      0.3323       2.9037
1916.0
      1.6340       3.0506       7.5527       8.5246       9.1683     117.3069
    109.0712      -0.2610       0.8233     103.8665      37.4181      49.6636
      7.9460       0.1870       4.1708       4.6116      80.3387       0.2647
      0.3113      10.0000       0.3180       8.1398       1.0750      -3.1875
      0.3324       3.0807
1915.5
      1.6245       3.0441       7.5486       8.5100       9.1589     117.5090
    109.1836      -0.3720       0.8790     104.0243      34.7174      39.4919
      8.0147       0.3682       4.1993       4.3508      80.3387       0.2647
      0.3447      10.0000       0.2984       7.6423       1.0935      -4.1250
      0.3335       3.2638
1915.0
      1.6197       3.0387       7.5475       8.5142       9.1628     117.4511
    109.1371      -0.3892       0.8590     112.8922      33.2841      35.5708
      8.0147       0.4689       4.8250       4.8625      80.3387       0.2648
      0.3514      10.0000       0.2299       7.7281       0.9410      -3.0000
      0.3951       3.2922
1914.5
      1.6175       3.0354       7.5472       8.5226       9.1611     117.3344
    109.1568      -0.3566       0.7119     123.3271      34.7771      33.5995
      7.3733       0.4601       5.6599       5.5813      80.3387       0.2649
      0.3895      10.0000       0.1374       8.8415       1.0562      -2.1875
      0.4675       3.2384
1914.0
      1.6167       3.0335       7.5475       8.5244       9.1691     117.3103
    109.0619      -0.4129       0.5048     156.9255      36.6506      31.6117
      6.7778       0.5819       2.3041       2.0506      80.3387       0.2649
      0.4847      10.0000       0.0348       2.9599       1.0538       1.6250
      0.7009       3.3313
1913.5
      1.6164       3.0324       7.5492       8.5195       9.1830     117.3782
    108.8963      -0.6763       0.3208     144.7190      36.6639      29.5941
      6.6633       0.9503       1.4466       1.2953      80.3387       0.2650
      0.4760      10.0000       0.0000       1.7452       1.0770      10.9375
      0.6161       3.7659
1913.0
      1.6163       3.0317       7.5488       8.5243       9.1852     117.3116
    108.8711      -0.9772       0.2371     142.2651      36.8253      37.5838
      6.6174       1.4166       0.3976       0.3702      80.3387       0.2651
      0.4754      10.0000       0.0000       0.3407       1.0509      43.8125
      0.5991       4.2624
1912.5
      1.6162       3.0311       7.5493       8.5248       9.1936     117.3051
    108.7711      -1.1748       0.2120     149.9078      36.8452      35.3534
      6.5258       1.6857       0.1502       0.1520      80.3387       0.2652
      0.4853      10.0000       0.0000       0.2168       0.8236      79.5000
      0.6521       4.5884
1912.0
      1.6161       3.0305       7.5496       8.5289       9.1974     117.2483
    108.7263      -1.1654       0.2080     152.4727      38.4864      33.8228
      6.4456       1.7097       0.1730       0.1721      80.3387       0.2652
      0.4471       9.9845       0.0000       0.1797       0.7958     108.5000
      0.6699       4.5729
