~VERSION INFORMATION
VERS.           2.0   :CWLS Log ASCII Standard - VERSION 2.0
WRAP.           YES   :Multiple lines per depth step
PROD.  Schlumberger   :LAS Producer
PROG.  DLIS to ASCII 13C0-300                          :LAS Program name and version
CREA.        2005/06/05 17:52                          :LAS Creation date {YYYY/MM/DD hh:mm}
SOURCE.     MERGE_TLD_MCFL_CNL_046.DLIS                :DLIS File Name
FILE-ID.     MERGE_TLD_MCFL_CNL_046                    :File Identification Number
#--------------------------------------------------
~WELL INFORMATION
#MNEM.UNIT      DATA             DESCRIPTION
#---- ------ --------------   -----------------------------
STRT .F         4647.0       :START DEPTH     
STOP .F         1912.0       :STOP DEPTH     
STEP .F           -0.5       :STEP     
NULL .          -999.25      :NULL VALUE
COMP .        RUTTER AND WILBANKS CORPORATION          :COMPANY
WELL .        AHTNA NO. 1-19 ST#1                      :WELL
FLD  .        COPPER RIVER BASIN WILDCAT               :FIELD
LOC  .        Sec. 19, T4N-R3W CRM                     :LOCATION
CNTY .        VALDEZ CORDOVA                           :COUNTY
STAT .        ALASKA                                   :STATE
CTRY .                                                 :COUNTRY
API  .        500992000500                             :API NUMBER
UWI  .        500992000500                             :UNIQUE WELL ID
DATE .        04-Jun-2005                              :LOG DATE {DD-MMM-YYYY}
SRVC .        Schlumberger                             :SERVICE COMPANY
LATI .DEG                                              :LATITUDE
LONG .DEG                                              :LONGITUDE
GDAT .                                                 :GeoDetic Datum
SECT .        19                                       :Section
RANG .        3W                                       :Range
TOWN .        4N                                       :Township
#-----------------------------------------------------------------------------
~PARAMETER INFORMATION
#MNEM.UNIT    VALUE                      DESCRIPTION
#---- -----   --------------------       ------------------------
RUN  .          ONE                      :RUN NUMBER
PDAT .        GROUND LEVEL               :Permanent Datum
EPD  .F         2018.699951              :Elevation of Permanent Datum above Mean Sea Level
EPD  .F         2018.699951              :Elevation of tool zero above Mean Sea Level
LMF  .          KELLY BUSHING            :Logging Measured From (Name of Logging Elevation Reference)
APD  .F          18.300049               :Elevation of Depth Reference (LMF) above Permanent Datum
#-----------------------------------------------------------------------------
~CURVE INFORMATION
#MNEM.UNIT   API CODE                                  DESCRIPTION
#---- -----  --------                                  -----------------------
DEPT .F                                                :DEPTH (BOREHOLE) {F10.1}
AHT10.OHMM                                             :Array Induction Two Foot Resistivity A10 {F13.4}
AHT20.OHMM                                             :Array Induction Two Foot Resistivity A20 {F13.4}
AHT30.OHMM                                             :Array Induction Two Foot Resistivity A30 {F13.4}
AHT60.OHMM                                             :Array Induction Two Foot Resistivity A60 {F13.4}
AHT90.OHMM                                             :Array Induction Two Foot Resistivity A90 {F13.4}
AHTCO60.MM/M                                           :Array Induction Two Foot Conductivity A60 {F13.4}
AHTCO90.MM/M                                           :Array Induction Two Foot Conductivity A90 {F13.4}
DPHZ .CFCF                                             :HRDD Standard Resolution Density Porosity {F13.4}
DSOZ .IN                                               :HRDD Standard Resolution Density Standoff {F13.4}
DT   .US/F                                             :Delta-T {F13.4}
GR   .GAPI                                             :Gamma-Ray {F13.4}
HAZI .DEG                                              :Hole Azimuth {F13.4}
HCAL .IN                                               :HRCC Cal. Caliper {F13.4}
HDRA .G/C3                                             :HRDD Density Correction {F13.4}
HMIN .OHMM                                             :MCFL Micro Inverse Resistivity {F13.4}
HMNO .OHMM                                             :MCFL Micro Normal Resistivity {F13.4}
HTEM .DEGF                                             :HTC Temperature {F13.4}
ITT  .S                                                :Integrated Transit Time {F13.4}
NPOR .CFCF                                             :Enhanced Thermal Neutron Porosity {F13.4}
PEFZ .                                                 :HRDD Standard Resolution Formation Photoelectric Factor {F13.4}
RSOZ .IN                                               :MCFL Standard Resolution Resistivity Standoff {F13.4}
RXOZ .OHMM                                             :MCFL Standard Resolution Invaded Zone Resistivity {F13.4}
SDEV .DEG                                              :Sonde Deviation {F13.4}
SP   .MV                                               :Spontaneous Potential {F13.4}
SPHI .CFCF                                             :Sonic Porosity {F13.4}
RHOZ .G/C3                                             :Bulk Density {F13.4}
#-----------------------------------------------------------------------------
# DEPT       
#     AHT10        AHT20        AHT30        AHT60        AHT90        AHTCO60      
#     AHTCO90      DPHZ         DSOZ         DT           GR           HAZI         
#     HCAL         HDRA         HMIN         HMNO         HTEM         ITT          
#     NPOR         PEFZ         RSOZ         RXOZ         SDEV         SP           
#     SPHI         RHOZ         
~A  
# ...
3195.0
      6.5418       6.8169       7.0201       7.3700       7.3963     135.6845
    135.2026       0.1187       0.2549     107.6991      49.4395     217.3726
      7.3504      -0.0018       4.5984       4.0704      87.1656       0.1441
      0.3610       4.0527       0.0000       5.7933       1.2876      -2.6250
      0.3590       2.4541
3194.5
      6.4714       6.7370       6.9171       7.2727       7.2970     137.5005
    137.0433       0.1290       0.2457     109.0094      50.3887     217.3047
      7.3161      -0.0031       4.5850       4.0586      87.1656       0.1441
      0.3769       4.1523       0.0000       5.7664       1.2953      -2.7500
      0.3681       2.4371
3194.0
      6.3802       6.6411       6.8245       7.1887       7.1947     139.1077
    138.9921       0.1292       0.2354     108.4388      49.1684     217.5728
      7.3275      -0.0015       4.8737       4.3126      87.1656       0.1442
      0.4286       4.2658       0.0000       5.9632       1.2938      -2.6250
      0.3642       2.4368
3193.5
      6.3537       6.6205       6.7856       7.1466       7.1563     139.9271
    139.7379       0.1210       0.2366     107.3028      50.3938     217.4781
      7.2588       0.0008       4.9146       4.3487      87.1656       0.1442
      0.3750       4.3750       0.0000       6.0987       1.2931      -2.4375
      0.3563       2.4504
3193.0
      6.3260       6.5975       6.7549       7.0808       7.1189     141.2272
    140.4713       0.1194       0.2495     105.4328      49.4623     217.7556
      7.2359      -0.0002       4.8647       4.3048      87.1656       0.1443
      0.3978       4.4843       0.0000       6.0663       1.2963      -0.1250
      0.3433       2.4530
3192.5
      6.3015       6.5762       6.7255       7.0683       7.1168     141.4760
    140.5126       0.1237       0.2481     104.0524      47.5838     217.9366
      7.2130      -0.0025       4.8742       4.3131      87.1656       0.1443
      0.3940       4.5695       0.0000       6.1161       1.3044      -1.2500
      0.3337       2.4460
3192.0
      6.3120       6.5909       6.7357       7.0839       7.1422     141.1650
    140.0126       0.1229       0.2471     103.7096      47.6004     218.1929
      7.1901      -0.0025       5.0955       4.5080      87.1656       0.1444
      0.4018       4.5978       0.0000       6.1651       1.3096      -2.0625
      0.3313       2.4473
3191.5
      6.3174       6.5884       6.7220       7.0684       7.1367     141.4750
    140.1201       0.1175       0.2498     103.9008      51.3689     218.2075
      7.1672      -0.0017       5.0095       4.4322      87.1656       0.1445
      0.3946       4.5788       0.0000       6.1930       1.3253      -1.7500
      0.3326       2.4562
3191.0
      6.3238       6.5897       6.7298       7.0768       7.1490     141.3074
    139.8797       0.1206       0.2466     104.4075      50.3494     218.1322
      7.1672      -0.0039       4.9466       4.3769      87.1656       0.1445
      0.4151       4.5515       0.0000       6.1679       1.3309      -1.8125
      0.3362       2.4509
3190.5
      6.3345       6.5872       6.7199       7.0889       7.1720     141.0651
    139.4314       0.1238       0.2391     106.0143      49.9354     218.3172
      7.1672      -0.0042       4.9778       4.4043      87.1656       0.1446
      0.3754       4.5200       0.0000       6.1542       1.3360      -0.7500
      0.3473       2.4457
3190.0
      6.2727       6.5358       6.6782       7.0361       7.1358     142.1232
    140.1386       0.1287       0.2281     107.6478      51.8267     218.2318
      7.1786      -0.0040       4.9249       4.3578      87.1656       0.1446
      0.3809       4.4854       0.0000       6.0208       1.3373      -1.6875
      0.3587       2.4377
3189.5
      6.1980       6.4586       6.5906       6.9762       7.0879     143.3453
    141.0846       0.1296       0.2209     108.7486      55.9668     218.5777
      7.1214      -0.0034       4.7029       4.1624      87.1656       0.1447
      0.4086       4.4640       0.0000       6.0181       1.3415      -1.9375
      0.3663       2.4362
3189.0
      6.1743       6.4215       6.5495       6.9044       7.0501     144.8354
    141.8419       0.1291       0.2161     108.7487      56.3808     218.7122
      7.1443      -0.0042       5.0207       4.4421      87.1656       0.1447
      0.3859       4.4591       0.0000       6.1387       1.3476      -2.5000
      0.3663       2.4370
3188.5
      6.2109       6.4868       6.6191       6.9977       7.1417     142.9037
    140.0218       0.1175       0.2227     107.8032      52.5981     218.6255
      7.1328      -0.0013       5.2427       4.6376      87.1656       0.1448
      0.3989       4.4408       0.0000       6.4249       1.3585      -1.1250
      0.3597       2.4561
3188.0
      6.3108       6.5762       6.7127       7.1190       7.2270     140.4693
    138.3692       0.1079       0.2506     106.3476      50.1141     218.8466
      7.1214       0.0013       5.2207       4.6181      87.1656       0.1448
      0.3617       4.4146       0.0000       6.3715       1.3586      -0.3750
      0.3496       2.4719
3187.5
      6.2534       6.5180       6.6236       7.0391       7.1453     142.0637
    139.9529       0.1097       0.2942     107.4091      49.8906     218.5783
      7.1901       0.0027       4.9548       4.3840      87.1656       0.1449
      0.3815       4.4533       0.0000       6.1455       1.3656      -1.1875
      0.3570       2.4689
3187.0
      6.0920       6.3372       6.4545       6.8452       6.9781     146.0883
    143.3050       0.1319       0.3117     109.7668      55.8235     218.9082
      7.1672      -0.0005       4.6280       4.1007      87.1656       0.1449
      0.4030       4.5705       0.0184       5.6134       1.3661      -2.1250
      0.3734       2.4323
3186.5
      5.8913       6.1349       6.2486       6.6161       6.7420     151.1473
    148.3230       0.1494       0.2867     111.3829      54.1530     219.1334
      7.2130      -0.0009       4.2933       3.8183      87.1656       0.1450
      0.4307       4.6558       0.0273       5.7392       1.3694      -4.1250
      0.3846       2.4034
3186.0
      5.7737       5.9460       6.0435       6.4135       6.5493     155.9208
    152.6888       0.1513       0.2520     111.9739      51.9577     219.1474
      7.1443      -0.0001       5.0654       4.4912      87.1656       0.1450
      0.4099       4.6181       0.0266       5.9026       1.3671      -4.5625
      0.3887       2.4003
3185.5
      5.7225       5.8919       6.0020       6.3548       6.4866     157.3608
    154.1642       0.1405       0.2331     111.7747      46.6117     219.1937
      7.1214      -0.0007       5.1233       4.5325      87.1656       0.1451
      0.4047       4.4967       0.0000       6.3688       1.3725      -4.0000
      0.3873       2.4181
3185.0
      5.7004       5.8353       5.9479       6.2959       6.4113     158.8346
    155.9737       0.1309       0.2375     110.1844      46.4845     219.1428
      7.1901      -0.0038       4.9155       4.3495      87.1656       0.1452
      0.4286       4.3840       0.0000       6.0714       1.3749      -3.5625
      0.3763       2.4340
3184.5
      5.6619       5.7640       5.8634       6.2416       6.3232     160.2155
    158.1470       0.1298       0.2381     109.0820      48.6798     219.3404
      7.1099      -0.0075       4.6464       4.1126      87.1656       0.1452
      0.4236       4.3170       0.0000       5.9492       1.3766      -1.8750
      0.3686       2.4358
3184.0
      5.6500       5.7638       5.8824       6.2167       6.2913     160.8580
    158.9497       0.1231       0.2466     107.9268      51.7995     219.3193
      7.0985      -0.0054       4.8351       4.2788      87.1656       0.1453
      0.3980       4.2611       0.0000       5.9802       1.3786      -1.8750
      0.3606       2.4468
3183.5
      5.8364       5.9783       6.0942       6.4374       6.5049     155.3426
    153.7293       0.1208       0.2547     106.6833      56.7478     219.4041
      7.0412      -0.0047       4.9753       4.4022      87.1656       0.1453
      0.3749       4.1916       0.0000       6.1653       1.3775      -0.1875
      0.3520       2.4506
