~VERSION INFORMATION
VERS.           2.0   :CWLS Log ASCII Standard - VERSION 2.0
WRAP.           YES   :Multiple lines per depth step
PROD.  Schlumberger   :LAS Producer
PROG.  DLIS to ASCII 13C0-300                          :LAS Program name and version
CREA.        2005/06/05 17:52                          :LAS Creation date {YYYY/MM/DD hh:mm}
SOURCE.     MERGE_TLD_MCFL_CNL_046.DLIS                :DLIS File Name
FILE-ID.     MERGE_TLD_MCFL_CNL_046                    :File Identification Number
#--------------------------------------------------
~WELL INFORMATION
#MNEM.UNIT      DATA             DESCRIPTION
#---- ------ --------------   -----------------------------
STRT .F         4647.0       :START DEPTH     
STOP .F         1912.0       :STOP DEPTH     
STEP .F           -0.5       :STEP     
NULL .          -999.25      :NULL VALUE
COMP .        RUTTER AND WILBANKS CORPORATION          :COMPANY
WELL .        AHTNA NO. 1-19 ST#1                      :WELL
FLD  .        COPPER RIVER BASIN WILDCAT               :FIELD
LOC  .        Sec. 19, T4N-R3W CRM                     :LOCATION
CNTY .        VALDEZ CORDOVA                           :COUNTY
STAT .        ALASKA                                   :STATE
CTRY .                                                 :COUNTRY
API  .        500992000500                             :API NUMBER
UWI  .        500992000500                             :UNIQUE WELL ID
DATE .        04-Jun-2005                              :LOG DATE {DD-MMM-YYYY}
SRVC .        Schlumberger                             :SERVICE COMPANY
LATI .DEG                                              :LATITUDE
LONG .DEG                                              :LONGITUDE
GDAT .                                                 :GeoDetic Datum
SECT .        19                                       :Section
RANG .        3W                                       :Range
TOWN .        4N                                       :Township
#-----------------------------------------------------------------------------
~PARAMETER INFORMATION
#MNEM.UNIT    VALUE                      DESCRIPTION
#---- -----   --------------------       ------------------------
RUN  .          ONE                      :RUN NUMBER
PDAT .        GROUND LEVEL               :Permanent Datum
EPD  .F         2018.699951              :Elevation of Permanent Datum above Mean Sea Level
EPD  .F         2018.699951              :Elevation of tool zero above Mean Sea Level
LMF  .          KELLY BUSHING            :Logging Measured From (Name of Logging Elevation Reference)
APD  .F          18.300049               :Elevation of Depth Reference (LMF) above Permanent Datum
#-----------------------------------------------------------------------------
~CURVE INFORMATION
#MNEM.UNIT   API CODE                                  DESCRIPTION
#---- -----  --------                                  -----------------------
DEPT .F                                                :DEPTH (BOREHOLE) {F10.1}
AHT10.OHMM                                             :Array Induction Two Foot Resistivity A10 {F13.4}
AHT20.OHMM                                             :Array Induction Two Foot Resistivity A20 {F13.4}
AHT30.OHMM                                             :Array Induction Two Foot Resistivity A30 {F13.4}
AHT60.OHMM                                             :Array Induction Two Foot Resistivity A60 {F13.4}
AHT90.OHMM                                             :Array Induction Two Foot Resistivity A90 {F13.4}
AHTCO60.MM/M                                           :Array Induction Two Foot Conductivity A60 {F13.4}
AHTCO90.MM/M                                           :Array Induction Two Foot Conductivity A90 {F13.4}
DPHZ .CFCF                                             :HRDD Standard Resolution Density Porosity {F13.4}
DSOZ .IN                                               :HRDD Standard Resolution Density Standoff {F13.4}
DT   .US/F                                             :Delta-T {F13.4}
GR   .GAPI                                             :Gamma-Ray {F13.4}
HAZI .DEG                                              :Hole Azimuth {F13.4}
HCAL .IN                                               :HRCC Cal. Caliper {F13.4}
HDRA .G/C3                                             :HRDD Density Correction {F13.4}
HMIN .OHMM                                             :MCFL Micro Inverse Resistivity {F13.4}
HMNO .OHMM                                             :MCFL Micro Normal Resistivity {F13.4}
HTEM .DEGF                                             :HTC Temperature {F13.4}
ITT  .S                                                :Integrated Transit Time {F13.4}
NPOR .CFCF                                             :Enhanced Thermal Neutron Porosity {F13.4}
PEFZ .                                                 :HRDD Standard Resolution Formation Photoelectric Factor {F13.4}
RSOZ .IN                                               :MCFL Standard Resolution Resistivity Standoff {F13.4}
RXOZ .OHMM                                             :MCFL Standard Resolution Invaded Zone Resistivity {F13.4}
SDEV .DEG                                              :Sonde Deviation {F13.4}
SP   .MV                                               :Spontaneous Potential {F13.4}
SPHI .CFCF                                             :Sonic Porosity {F13.4}
RHOZ .G/C3                                             :Bulk Density {F13.4}
#-----------------------------------------------------------------------------
# DEPT       
#     AHT10        AHT20        AHT30        AHT60        AHT90        AHTCO60      
#     AHTCO90      DPHZ         DSOZ         DT           GR           HAZI         
#     HCAL         HDRA         HMIN         HMNO         HTEM         ITT          
#     NPOR         PEFZ         RSOZ         RXOZ         SDEV         SP           
#     SPHI         RHOZ         
~A  
# ...
4287.0
     25.4930      25.1072      24.1490      23.7619      23.6084      42.0841
     42.3578       0.1369       0.0424      79.1769      28.5115     121.7399
      6.3884      -0.0059      28.4610      25.1911      90.0401       0.0317
      0.2354       3.6658       0.0000      34.3493       4.2290     -18.1250
      0.1610       2.4241
4286.5
     25.2623      24.6660      23.7759      23.5272      23.4025      42.5040
     42.7305       0.1354       0.0385      79.1515      27.1494     121.6860
      6.3998      -0.0061      25.7750      22.8057      90.0401       0.0318
      0.2392       3.6576       0.0000      34.6843       4.2286     -18.3125
      0.1608       2.4266
4286.0
     25.0340      24.7123      23.8293      23.5841      23.4531      42.4015
     42.6383       0.1355       0.0340      79.6269      28.4369     121.6738
      6.3807      -0.0058      28.4860      25.2133      90.0401       0.0318
      0.2290       3.6341       0.0000      34.5426       4.2326     -19.1250
      0.1641       2.4264
4285.5
     25.1196      25.0196      24.1723      23.9497      23.8092      41.7542
     42.0007       0.1345       0.0193      79.7650      26.6711     121.6110
      6.3655      -0.0046      29.8679      26.4405      90.0401       0.0319
      0.2206       3.6058       0.0000      38.9810       4.2357     -20.1875
      0.1650       2.4281
4285.0
     25.6406      25.6169      24.6293      24.4529      24.2792      40.8949
     41.1875       0.1313       0.0000      79.4159      24.3056     121.6462
      6.3655      -0.0024      34.4695      30.5275      90.0401       0.0319
      0.2305       3.5846       0.0000      40.7116       4.2353     -21.5000
      0.1626       2.4333
4284.5
     26.3703      26.0184      25.0052      24.9071      24.7092      40.1491
     40.4708       0.1262       0.0105      79.8372      24.4160     121.6634
      6.3426      -0.0003      33.2783      29.4693      90.0401       0.0319
      0.2209       3.5847       0.0000      44.5739       4.2336     -22.5625
      0.1655       2.4417
4284.0
     26.4326      25.9010      25.0292      25.0216      24.7485      39.9655
     40.4066       0.1280       0.0162      79.4731      24.1953     121.7770
      6.3502      -0.0008      33.5368      29.6989      90.0401       0.0320
      0.2167       3.6281       0.0000      42.1747       4.2306     -25.1875
      0.1630       2.4389
4283.5
     25.8107      25.3001      24.5499      24.6015      24.3639      40.6479
     41.0444       0.1299       0.0218      79.5361      27.3886     121.7638
      6.4686      -0.0020      30.7694      27.2412      90.0401       0.0320
      0.2146       3.6907       0.0000      38.8542       4.2325     -23.6875
      0.1634       2.4356
4283.0
     25.4693      25.0295      24.2843      24.2587      24.1238      41.2223
     41.4528       0.1343       0.0113      79.9573      29.7063     121.7076
      6.4686      -0.0043      28.3060      25.0534      90.0401       0.0320
      0.2346       3.7804       0.0000      38.6494       4.2311     -24.3125
      0.1664       2.4285
4282.5
     25.1617      24.7389      23.9702      24.0164      23.8588      41.6383
     41.9133       0.1309       0.0056      79.6863      29.5959     121.6786
      6.4571      -0.0037      30.4656      26.9713      90.0401       0.0321
      0.2264       3.8707       0.0000      34.9015       4.2345     -23.3750
      0.1645       2.4340
4282.0
     24.8062      24.4741      23.6006      23.5313      23.5339      42.4966
     42.4918       0.1313       0.0073      79.8198      29.2472     121.6505
      6.4571      -0.0045      25.6155      22.6642      90.0401       0.0321
      0.2288       3.9903       0.0000      34.4167       4.2378     -23.8125
      0.1654       2.4334
4281.5
     24.6223      24.5065      23.7008      23.5806      23.7356      42.4077
     42.1309       0.1384       0.0364      79.9507      30.2663     121.6818
      6.4113      -0.0076      26.2764      23.2510      90.0401       0.0322
      0.2402       4.1250       0.0000      32.8999       4.2341     -22.3125
      0.1663       2.4217
4281.0
     24.4241      24.5662      23.7607      23.5838      23.8774      42.4020
     41.8807       0.1503       0.0823      79.8772      32.0322     121.6524
      6.4113      -0.0121      27.5364      24.3700      90.0401       0.0322
      0.2268       4.2494       0.0000      33.3007       4.2375     -20.1875
      0.1658       2.4021
4280.5
     23.6823      23.5999      22.8182      22.7949      23.1249      43.8695
     43.2435       0.1552       0.1101      80.0877      32.6119     121.7929
      6.3884      -0.0131      24.2555      21.4579      90.0401       0.0322
      0.2284       4.3066       0.0000      31.3527       4.2279     -20.0625
      0.1673       2.3938
4280.0
     22.9988      22.8889      22.2707      22.2870      22.5654      44.8692
     44.3156       0.1566       0.1158      79.8218      31.7087     121.8423
      6.3960      -0.0124      23.1123      20.4440      90.0401       0.0323
      0.2453       4.3203       0.0000      30.0150       4.2263     -19.0000
      0.1654       2.3916
4279.5
     23.0245      22.7107      22.0690      22.0758      22.3492      45.2984
     44.7444       0.1531       0.1112      79.8307      31.5983     121.7296
      6.3884      -0.0099      25.4016      22.4745      90.0401       0.0323
      0.2377       4.2906       0.0000      31.5481       4.2309     -20.8125
      0.1655       2.3974
4279.0
     23.2227      22.9252      22.3055      22.4971      22.7278      44.4502
     43.9989       0.1495       0.1306      79.8329      29.8252     121.6542
      6.3884      -0.0083      25.7798      22.8099      90.0401       0.0324
      0.2262       4.2339       0.0000      31.0740       4.2377     -20.1250
      0.1655       2.4033
4278.5
     23.3725      23.1657      22.5573      22.6916      22.8263      44.0691
     43.8091       0.1467       0.1645      79.8339      29.3782     121.6405
      6.3884      -0.0082      22.1961      19.6313      90.0401       0.0324
      0.2536       4.1350       0.0000      30.5480       4.2387     -21.1875
      0.1655       2.4080
4278.0
     23.6606      23.4464      22.7408      22.8496      23.0235      43.7644
     43.4339       0.1442       0.2099      80.2116      29.6323     121.7453
      6.3655      -0.0085      24.5658      21.7331      90.0401       0.0324
      0.2427       4.0448       0.0000      30.0048       4.2361     -20.7500
      0.1681       2.4120
4277.5
     23.8248      23.5447      23.0444      23.2347      23.3342      43.0391
     42.8556       0.1433       0.2350      80.4173      32.7020     121.7835
      6.3655      -0.0091      24.2499      21.4529      90.0401       0.0325
      0.2457       3.9333       0.0000      29.2303       4.2316     -20.1875
      0.1696       2.4135
4277.0
     23.6661      23.5775      23.0587      23.1339      23.3000      43.2266
     42.9185       0.1427       0.2481      80.4813      32.2605     121.8804
      6.3769      -0.0089      21.1745      18.7252      90.0401       0.0325
      0.2541       3.8226       0.0000      28.7414       4.2251     -19.3125
      0.1700       2.4146
4276.5
     24.0537      23.9676      23.4236      23.4953      23.7893      42.5617
     42.0357       0.1476       0.2561      80.3998      32.6154     121.8735
      6.3655      -0.0109      24.5780      21.7439      90.0401       0.0326
      0.2398       3.7718       0.0000      31.0592       4.2260     -19.3125
      0.1694       2.4065
4276.0
     24.3781      24.2331      23.7590      23.7280      23.9246      42.1444
     41.7980       0.1487       0.2657      80.3904      31.0702     121.8382
      6.3655      -0.0109      28.4888      25.2157      90.0401       0.0326
      0.2365       3.7835       0.0000      34.3942       4.2273     -19.1875
      0.1694       2.4047
4275.5
     24.5313      24.4401      23.8171      23.8564      24.1806      41.9175
     41.3555       0.1497       0.2704      80.4957      30.1873     121.7336
      6.3807      -0.0108      27.2686      24.1321      90.0401       0.0327
      0.2453       3.8241       0.0000      34.9300       4.2273     -19.3750
      0.1701       2.4030
