~VERSION INFORMATION
VERS.           2.0   :CWLS Log ASCII Standard - VERSION 2.0
WRAP.           YES   :Multiple lines per depth step
PROD.  Schlumberger   :LAS Producer
PROG.  DLIS to ASCII 13C0-300                          :LAS Program name and version
CREA.        2005/06/05 17:52                          :LAS Creation date {YYYY/MM/DD hh:mm}
SOURCE.     MERGE_TLD_MCFL_CNL_046.DLIS                :DLIS File Name
FILE-ID.     MERGE_TLD_MCFL_CNL_046                    :File Identification Number
#--------------------------------------------------
~WELL INFORMATION
#MNEM.UNIT      DATA             DESCRIPTION
#---- ------ --------------   -----------------------------
STRT .F         4647.0       :START DEPTH     
STOP .F         1912.0       :STOP DEPTH     
STEP .F           -0.5       :STEP     
NULL .          -999.25      :NULL VALUE
COMP .        RUTTER AND WILBANKS CORPORATION          :COMPANY
WELL .        AHTNA NO. 1-19 ST#1                      :WELL
FLD  .        COPPER RIVER BASIN WILDCAT               :FIELD
LOC  .        Sec. 19, T4N-R3W CRM                     :LOCATION
CNTY .        VALDEZ CORDOVA                           :COUNTY
STAT .        ALASKA                                   :STATE
CTRY .                                                 :COUNTRY
API  .        500992000500                             :API NUMBER
UWI  .        500992000500                             :UNIQUE WELL ID
DATE .        04-Jun-2005                              :LOG DATE {DD-MMM-YYYY}
SRVC .        Schlumberger                             :SERVICE COMPANY
LATI .DEG                                              :LATITUDE
LONG .DEG                                              :LONGITUDE
GDAT .                                                 :GeoDetic Datum
SECT .        19                                       :Section
RANG .        3W                                       :Range
TOWN .        4N                                       :Township
#-----------------------------------------------------------------------------
~PARAMETER INFORMATION
#MNEM.UNIT    VALUE                      DESCRIPTION
#---- -----   --------------------       ------------------------
RUN  .          ONE                      :RUN NUMBER
PDAT .        GROUND LEVEL               :Permanent Datum
EPD  .F         2018.699951              :Elevation of Permanent Datum above Mean Sea Level
EPD  .F         2018.699951              :Elevation of tool zero above Mean Sea Level
LMF  .          KELLY BUSHING            :Logging Measured From (Name of Logging Elevation Reference)
APD  .F          18.300049               :Elevation of Depth Reference (LMF) above Permanent Datum
#-----------------------------------------------------------------------------
~CURVE INFORMATION
#MNEM.UNIT   API CODE                                  DESCRIPTION
#---- -----  --------                                  -----------------------
DEPT .F                                                :DEPTH (BOREHOLE) {F10.1}
AHT10.OHMM                                             :Array Induction Two Foot Resistivity A10 {F13.4}
AHT20.OHMM                                             :Array Induction Two Foot Resistivity A20 {F13.4}
AHT30.OHMM                                             :Array Induction Two Foot Resistivity A30 {F13.4}
AHT60.OHMM                                             :Array Induction Two Foot Resistivity A60 {F13.4}
AHT90.OHMM                                             :Array Induction Two Foot Resistivity A90 {F13.4}
AHTCO60.MM/M                                           :Array Induction Two Foot Conductivity A60 {F13.4}
AHTCO90.MM/M                                           :Array Induction Two Foot Conductivity A90 {F13.4}
DPHZ .CFCF                                             :HRDD Standard Resolution Density Porosity {F13.4}
DSOZ .IN                                               :HRDD Standard Resolution Density Standoff {F13.4}
DT   .US/F                                             :Delta-T {F13.4}
GR   .GAPI                                             :Gamma-Ray {F13.4}
HAZI .DEG                                              :Hole Azimuth {F13.4}
HCAL .IN                                               :HRCC Cal. Caliper {F13.4}
HDRA .G/C3                                             :HRDD Density Correction {F13.4}
HMIN .OHMM                                             :MCFL Micro Inverse Resistivity {F13.4}
HMNO .OHMM                                             :MCFL Micro Normal Resistivity {F13.4}
HTEM .DEGF                                             :HTC Temperature {F13.4}
ITT  .S                                                :Integrated Transit Time {F13.4}
NPOR .CFCF                                             :Enhanced Thermal Neutron Porosity {F13.4}
PEFZ .                                                 :HRDD Standard Resolution Formation Photoelectric Factor {F13.4}
RSOZ .IN                                               :MCFL Standard Resolution Resistivity Standoff {F13.4}
RXOZ .OHMM                                             :MCFL Standard Resolution Invaded Zone Resistivity {F13.4}
SDEV .DEG                                              :Sonde Deviation {F13.4}
SP   .MV                                               :Spontaneous Potential {F13.4}
SPHI .CFCF                                             :Sonic Porosity {F13.4}
RHOZ .G/C3                                             :Bulk Density {F13.4}
#-----------------------------------------------------------------------------
# DEPT       
#     AHT10        AHT20        AHT30        AHT60        AHT90        AHTCO60      
#     AHTCO90      DPHZ         DSOZ         DT           GR           HAZI         
#     HCAL         HDRA         HMIN         HMNO         HTEM         ITT          
#     NPOR         PEFZ         RSOZ         RXOZ         SDEV         SP           
#     SPHI         RHOZ         
~A  
# ...
2655.0
      9.1093       9.6606       9.2871       9.5617       9.7594     104.5841
    102.4650       0.1006       0.0594     100.1914      52.0387     219.4832
      6.5487      -0.0059       7.4017       6.5409      84.2911       0.1926
      0.3523       4.9381       0.0000       9.2039       0.6600      -5.7500
      0.3069       2.4840
2654.5
      9.0699       9.7374       9.4373       9.7019      10.0108     103.0724
     99.8926       0.1067       0.1068      99.8935      51.2115     219.5072
      6.5487      -0.0092       7.9555       7.0291      84.2911       0.1926
      0.3614       4.9501       0.0000       9.4823       0.6664      -5.5625
      0.3048       2.4739
2654.0
      9.1810       9.8317       9.4276       9.7937      10.1459     102.1060
     98.5618       0.1104       0.1608     100.5383      52.1582     219.7715
      6.5945      -0.0094       7.3465       6.4922      84.2911       0.1927
      0.3460       4.9884       0.0000       8.9355       0.6627      -5.5000
      0.3093       2.4678
2653.5
      8.9426       9.4952       9.4008       9.8399      10.2615     101.6269
     97.4514       0.1111       0.1921     102.0905      55.2423     219.9560
      6.5945      -0.0089       6.2632       5.5373      84.2911       0.1927
      0.3674       4.9525       0.0000       8.5177       0.6606      -5.6875
      0.3201       2.4667
2653.0
      8.2636       8.9414       9.0269       9.4727       9.8053     105.5662
    101.9858       0.1073       0.1851     102.8985      60.4391     220.2176
      6.6060      -0.0075       6.9708       6.1610      84.2911       0.1928
      0.3832       4.8623       0.0000       8.6066       0.6590      -4.9375
      0.3257       2.4730
2652.5
      8.2098       8.3938       8.4318       8.8942       9.2024     112.4324
    108.6668       0.0985       0.1451     103.0520      61.2420     220.0143
      6.5716      -0.0054       7.7720       6.8673      84.2911       0.1928
      0.3548       4.7530       0.0000       9.2265       0.6648      -4.9375
      0.3267       2.4875
2652.0
      8.3606       8.3920       8.6029       9.2100       9.3257     108.5776
    107.2310       0.0936       0.0851     103.1675      55.7101     219.8138
      6.5945      -0.0034       7.4132       6.5510      84.2911       0.1929
      0.3549       4.6482       0.0000       9.1479       0.6636      -4.6875
      0.3276       2.4955
2651.5
      8.4312       8.3487       9.0303       9.5036       9.6363     105.2229
    103.7742       0.0962       0.0768     102.1751      54.2359     220.1277
      6.5945      -0.0039       6.8490       6.0537      84.2911       0.1929
      0.3554       4.5689       0.0000       8.8277       0.6643      -5.1875
      0.3207       2.4913
2651.0
      8.3478       8.4819       9.0228       9.4988       9.7009     105.2767
    103.0829       0.0944       0.0921     102.4433      51.5627     220.4574
      6.6403      -0.0060       8.0458       7.1087      84.2911       0.1930
      0.3471       4.4682       0.0000      10.3032       0.6694      -6.2500
      0.3225       2.4942
2650.5
      8.5785       8.6627       8.8981       9.4642       9.5973     105.6616
    104.1959       0.0903       0.1230     102.1312      53.1997     220.1272
      6.6174      -0.0075      10.8731       9.6027      84.2911       0.1930
      0.3291       4.4477       0.0000      11.3665       0.6685      -4.5625
      0.3204       2.5010
2650.0
      8.4647       8.8379       9.3903       9.8687       9.9662     101.3307
    100.3392       0.0875       0.1351     100.3683      53.8379     220.5624
      6.6174      -0.0075       8.0426       7.1059      84.2911       0.1931
      0.3390       4.5227       0.0000      10.4774       0.6670      -5.0625
      0.3081       2.5056
2649.5
      8.4618       8.8777       9.0375       9.0910       9.2352     109.9995
    108.2819       0.0940       0.1081      98.7685      58.0529     220.4419
      6.6174      -0.0055       6.5662       5.8044      84.2911       0.1931
      0.3460       4.7076       0.0000       8.6532       0.6699      -6.7500
      0.2970       2.4948
2649.0
      8.3637       8.8050       8.7295       9.0458       9.2271     110.5483
    108.3762       0.1013       0.0715      99.2016      59.8987     220.7935
      6.6174      -0.0029       6.5591       5.7982      84.2911       0.1932
      0.3643       4.7946       0.0000       8.2164       0.6730      -5.8750
      0.3000       2.4829
2648.5
      8.3268       8.6205       8.7031       9.0674       9.2101     110.2852
    108.5768       0.1032       0.0175     102.1415      54.9306     220.7854
      6.6403      -0.0001       6.8493       6.0539      84.2911       0.1932
      0.3937       4.7368       0.0000       8.5236       0.6718      -8.0000
      0.3204       2.4797
2648.0
      8.0566       8.3975       8.2721       8.5203       8.7220     117.3667
    114.6529       0.1030       0.0000     104.3474      52.8029     220.3281
      6.6174       0.0010       8.0781       7.1372      84.2911       0.1933
      0.3585       4.6061       0.0000       9.7531       0.6700      -6.9375
      0.3357       2.4801
2647.5
      8.0627       8.2037       8.1327       8.3067       8.6325     120.3847
    115.8416       0.1053       0.0000     105.5137      49.2838     220.4863
      6.5945       0.0001       8.7136       7.6974      84.2911       0.1933
      0.3494       4.5357       0.0000      10.0552       0.6834      -8.2500
      0.3438       2.4762
2647.0
      8.1154       8.1335       8.1574       8.4796       8.5518     117.9306
    116.9347       0.1097       0.0123     107.0968      52.9389     221.1065
      6.6403      -0.0023       7.3582       6.5026      84.2911       0.1934
      0.3371       4.4416       0.0000      10.6755       0.6757      -8.4375
      0.3548       2.4689
2646.5
      8.3571       8.2128       8.2701       8.8707       8.6164     112.7306
    116.0575       0.1064       0.0150     104.1756      50.8516     221.1161
      6.6174      -0.0022       9.5880       8.4682      84.2911       0.1934
      0.3147       4.2781       0.0000      11.8606       0.6807     -10.5625
      0.3346       2.4745
2646.0
      9.1767       8.8891       8.8888       9.4215       9.1142     106.1405
    109.7187       0.0895       0.0322      98.9364      52.7613     221.2302
      6.6174       0.0036      12.2465      10.8160      84.2911       0.1935
      0.2751       4.2173       0.0000      15.0326       0.6754     -10.5000
      0.2982       2.5023
2645.5
     11.0465      10.2569      10.2950      10.8632      10.5825      92.0538
     94.4954       0.0623       0.0478      92.9307      50.7623     221.5903
      6.6174       0.0172      13.6423      12.0490      84.2911       0.1935
      0.2519       4.4723       0.0000      17.5555       0.6757     -11.3750
      0.2565       2.5473
2645.0
     12.7438      11.6668      11.5606      12.1086      11.6194      82.5860
     86.0627       0.0671       0.0633      89.5902      48.2782     221.7424
      6.5716       0.0144      14.2824      12.6150      84.2911       0.1936
      0.2812       4.9987       0.0000      15.5620       0.6753     -10.4375
      0.2333       2.5394
2644.5
     11.7370      10.9727      10.8533      11.2132      10.8588      89.1810
     92.0911       0.0928       0.1177      95.6870      45.4412     221.6905
      6.6403       0.0052       9.9432       9.1285      84.2911       0.1936
      0.3090       5.4556       0.0255      14.8790       0.6776     -12.2500
      0.2756       2.4969
2644.0
      9.2544       8.8320       8.6325       8.8148       8.6286     113.4453
    115.8936       0.1246       0.1618     103.7009      43.9922     221.9218
      6.6633      -0.0088      10.3256       9.7643      84.2911       0.1937
      0.3399       5.4771       0.0619      13.7234       0.6758     -13.5000
      0.3313       2.4443
2643.5
      8.1393       7.7849       7.5930       7.7548       7.6748     128.9526
    130.2964       0.1165       0.1573     108.9047      43.5988     222.1908
      6.6403      -0.0042      10.7233       9.8134      84.2911       0.1937
      0.3255       5.0405       0.0345      14.5534       0.6754     -17.7500
      0.3674       2.4578
