~VERSION INFORMATION
VERS.           2.0   :CWLS Log ASCII Standard - VERSION 2.0
WRAP.           YES   :Multiple lines per depth step
PROD.  Schlumberger   :LAS Producer
PROG.  DLIS to ASCII 13C0-300                          :LAS Program name and version
CREA.        2005/06/05 17:52                          :LAS Creation date {YYYY/MM/DD hh:mm}
SOURCE.     MERGE_TLD_MCFL_CNL_046.DLIS                :DLIS File Name
FILE-ID.     MERGE_TLD_MCFL_CNL_046                    :File Identification Number
#--------------------------------------------------
~WELL INFORMATION
#MNEM.UNIT      DATA             DESCRIPTION
#---- ------ --------------   -----------------------------
STRT .F         4647.0       :START DEPTH     
STOP .F         1912.0       :STOP DEPTH     
STEP .F           -0.5       :STEP     
NULL .          -999.25      :NULL VALUE
COMP .        RUTTER AND WILBANKS CORPORATION          :COMPANY
WELL .        AHTNA NO. 1-19 ST#1                      :WELL
FLD  .        COPPER RIVER BASIN WILDCAT               :FIELD
LOC  .        Sec. 19, T4N-R3W CRM                     :LOCATION
CNTY .        VALDEZ CORDOVA                           :COUNTY
STAT .        ALASKA                                   :STATE
CTRY .                                                 :COUNTRY
API  .        500992000500                             :API NUMBER
UWI  .        500992000500                             :UNIQUE WELL ID
DATE .        04-Jun-2005                              :LOG DATE {DD-MMM-YYYY}
SRVC .        Schlumberger                             :SERVICE COMPANY
LATI .DEG                                              :LATITUDE
LONG .DEG                                              :LONGITUDE
GDAT .                                                 :GeoDetic Datum
SECT .        19                                       :Section
RANG .        3W                                       :Range
TOWN .        4N                                       :Township
#-----------------------------------------------------------------------------
~PARAMETER INFORMATION
#MNEM.UNIT    VALUE                      DESCRIPTION
#---- -----   --------------------       ------------------------
RUN  .          ONE                      :RUN NUMBER
PDAT .        GROUND LEVEL               :Permanent Datum
EPD  .F         2018.699951              :Elevation of Permanent Datum above Mean Sea Level
EPD  .F         2018.699951              :Elevation of tool zero above Mean Sea Level
LMF  .          KELLY BUSHING            :Logging Measured From (Name of Logging Elevation Reference)
APD  .F          18.300049               :Elevation of Depth Reference (LMF) above Permanent Datum
#-----------------------------------------------------------------------------
~CURVE INFORMATION
#MNEM.UNIT   API CODE                                  DESCRIPTION
#---- -----  --------                                  -----------------------
DEPT .F                                                :DEPTH (BOREHOLE) {F10.1}
AHT10.OHMM                                             :Array Induction Two Foot Resistivity A10 {F13.4}
AHT20.OHMM                                             :Array Induction Two Foot Resistivity A20 {F13.4}
AHT30.OHMM                                             :Array Induction Two Foot Resistivity A30 {F13.4}
AHT60.OHMM                                             :Array Induction Two Foot Resistivity A60 {F13.4}
AHT90.OHMM                                             :Array Induction Two Foot Resistivity A90 {F13.4}
AHTCO60.MM/M                                           :Array Induction Two Foot Conductivity A60 {F13.4}
AHTCO90.MM/M                                           :Array Induction Two Foot Conductivity A90 {F13.4}
DPHZ .CFCF                                             :HRDD Standard Resolution Density Porosity {F13.4}
DSOZ .IN                                               :HRDD Standard Resolution Density Standoff {F13.4}
DT   .US/F                                             :Delta-T {F13.4}
GR   .GAPI                                             :Gamma-Ray {F13.4}
HAZI .DEG                                              :Hole Azimuth {F13.4}
HCAL .IN                                               :HRCC Cal. Caliper {F13.4}
HDRA .G/C3                                             :HRDD Density Correction {F13.4}
HMIN .OHMM                                             :MCFL Micro Inverse Resistivity {F13.4}
HMNO .OHMM                                             :MCFL Micro Normal Resistivity {F13.4}
HTEM .DEGF                                             :HTC Temperature {F13.4}
ITT  .S                                                :Integrated Transit Time {F13.4}
NPOR .CFCF                                             :Enhanced Thermal Neutron Porosity {F13.4}
PEFZ .                                                 :HRDD Standard Resolution Formation Photoelectric Factor {F13.4}
RSOZ .IN                                               :MCFL Standard Resolution Resistivity Standoff {F13.4}
RXOZ .OHMM                                             :MCFL Standard Resolution Invaded Zone Resistivity {F13.4}
SDEV .DEG                                              :Sonde Deviation {F13.4}
SP   .MV                                               :Spontaneous Potential {F13.4}
SPHI .CFCF                                             :Sonic Porosity {F13.4}
RHOZ .G/C3                                             :Bulk Density {F13.4}
#-----------------------------------------------------------------------------
# DEPT       
#     AHT10        AHT20        AHT30        AHT60        AHT90        AHTCO60      
#     AHTCO90      DPHZ         DSOZ         DT           GR           HAZI         
#     HCAL         HDRA         HMIN         HMNO         HTEM         ITT          
#     NPOR         PEFZ         RSOZ         RXOZ         SDEV         SP           
#     SPHI         RHOZ         
~A  
# ...
4107.0
      3.8517       3.8575       3.8721       3.9533       3.8381     252.9533
    260.5460       0.1604       0.0168     114.0050      49.0734     132.7551
      6.3884      -0.0007       3.0861       2.7371      90.0401       0.0475
      0.4203       5.3902       0.0000       3.8607       4.7163       1.2500
      0.4028       2.3854
4106.5
      3.5942       3.5927       3.6105       3.7011       3.6475     270.1926
    274.1595       0.1746       0.0290     120.1486      49.9105     132.9327
      6.4495       0.0012       3.1034       2.7523      90.0401       0.0476
      0.4274       5.5073       0.0000       3.6938       4.7208      -0.4375
      0.4455       2.3619
4106.0
      3.6304       3.6299       3.6024       3.7070       3.6598     269.7614
    273.2365       0.1790       0.0363     120.7782      45.5573     132.9767
      6.5029       0.0043       2.8296       2.5113      90.0401       0.0476
      0.4090       5.5621       0.0000       3.5593       4.7290      -2.0625
      0.4498       2.3547
4105.5
      3.7732       3.7429       3.7182       3.8742       3.8018     258.1177
    263.0355       0.1944       0.0238     118.0994      45.4390     133.1585
      6.4647       0.0004       2.8214       2.5040      90.0401       0.0477
      0.3884       5.6843       0.0000       3.6388       4.7187      -0.8125
      0.4312       2.3292
4105.0
      3.8594       3.8342       3.8850       4.0781       4.0152     245.2124
    249.0558       0.2089       0.0317     120.1898      43.4199     133.2715
      6.4113      -0.0071       3.1362       2.7813      90.0401       0.0478
      0.4223       6.1228       0.0000       3.3583       4.7155      -1.4375
      0.4458       2.3053
4104.5
      3.1596       3.1716       3.1843       3.3023       3.2434     302.8149
    308.3201       0.2214       0.0663     116.5994      46.3569     133.4153
      6.3655      -0.0165       2.2153       1.9688      90.0401       0.0478
      0.5034       6.6678       0.0138       3.0783       4.7124      -0.6875
      0.4208       2.2848
4104.0
      2.8749       2.8511       2.8347       2.9579       2.9397     338.0782
    340.1721       0.2040       0.1034     112.0453      46.7562     133.4726
      6.3769      -0.0159       2.5467       2.2583      90.0401       0.0479
      0.5030       6.8888       0.0133       3.2647       4.7138       0.6875
      0.3892       2.3134
4103.5
      3.6044       3.5086       3.4947       3.5883       3.5260     278.6861
    283.6057       0.1755       0.1230     110.7697      47.7319     133.5531
      6.4915      -0.0121       4.1389       3.6641      90.0401       0.0479
      0.4138       6.6006       0.0000       4.2025       4.7154       1.6250
      0.3803       2.3603
4103.0
      4.4551       4.4563       4.4397       4.3927       4.2905     227.6484
    233.0712       0.1520       0.1254     104.3466      50.6856     133.6416
      6.4571      -0.0077       4.0917       3.6226      90.0401       0.0480
      0.3619       6.1048       0.0000       5.0503       4.7249       2.4375
      0.3357       2.3993
4102.5
      4.4153       4.5406       4.5197       4.5035       4.4208     222.0488
    226.2027       0.1468       0.1488     103.1012      50.3963     133.7135
      6.3655      -0.0062       3.9386       3.4878      90.0401       0.0480
      0.4170       5.8343       0.0000       4.7332       4.7239       1.1875
      0.3271       2.4078
4102.0
      4.0411       4.0667       4.0669       4.0780       3.9884     245.2209
    250.7277       0.1522       0.1657     106.4862      48.1281     133.7896
      6.3540      -0.0029       2.9304       2.6001      90.0401       0.0481
      0.4741       5.7057       0.0000       3.8512       4.7155       1.6875
      0.3506       2.3988
4101.5
      3.8420       3.8343       3.8684       3.9488       3.8856     253.2395
    257.3590       0.1579       0.1702     107.1393      44.5799     133.9750
      6.4113       0.0009       2.7311       2.4245      90.0401       0.0481
      0.4514       5.5817       0.0000       3.7988       4.7108      -0.8750
      0.3551       2.3895
4101.0
      4.1021       4.0628       4.0608       4.3057       4.0981     232.2493
    244.0166       0.1603       0.1671     107.2261      43.1690     133.9635
      6.4113       0.0028       3.6990       3.2769      90.0401       0.0482
      0.4150       5.3457       0.0000       3.8422       4.7213      -0.3125
      0.3557       2.3855
4100.5
      4.3177       4.2195       4.2075       4.3886       4.2373     227.8612
    235.9981       0.1601       0.1663     106.3220      43.8704     134.0413
      6.4113       0.0029       3.1917       2.8302      90.0401       0.0482
      0.4127       5.0837       0.0000       4.1443       4.7232       1.8750
      0.3495       2.3858
4100.0
      4.4315       4.3841       4.3605       4.5272       4.3556     220.8878
    229.5890       0.1534       0.1640     104.1240      46.3541     134.0762
      6.4800       0.0053       3.2893       2.9161      90.0401       0.0483
      0.4040       4.8879       0.0000       4.1686       4.7275       0.5625
      0.3342       2.3968
4099.5
      4.4160       4.4215       4.4188       4.5765       4.3691     218.5098
    228.8819       0.1512       0.2167     106.0307      48.6013     134.1904
      6.4571       0.0069       3.8288       3.3912      90.0401       0.0484
      0.4138       4.8700       0.0038       4.1972       4.7201       1.0625
      0.3474       2.4005
4099.0
      4.2223       4.2099       4.1851       4.2734       4.0681     234.0076
    245.8162       0.1422       0.2765     107.1037      46.4757     134.1653
      6.4571       0.0136       3.1310       2.7766      90.0401       0.0484
      0.4190       5.0144       0.0063       4.2133       4.7171       0.3750
      0.3549       2.4153
4098.5
      4.0000       4.0254       4.0119       4.0634       3.8930     246.0965
    256.8684       0.1441       0.3167     108.1846      46.5940     134.1990
      6.4571       0.0184       3.0298       2.6876      90.0401       0.0485
      0.4228       5.2633       0.0047       3.8161       4.7132       1.8750
      0.3624       2.4123
4098.0
      3.9369       3.9142       3.8930       3.9316       3.7857     254.3522
    264.1496       0.1566       0.2589     108.9027      42.6257     134.1674
      6.4571       0.0165       3.1123       2.7603      90.0401       0.0485
      0.4158       5.4476       0.0000       3.8607       4.7188       1.9375
      0.3674       2.3915
4097.5
      3.9341       3.9360       3.9420       3.9215       3.7941     255.0046
    263.5677       0.1781       0.1865     109.7101      41.6845     134.2534
      6.4456       0.0072       3.1441       2.7882      90.0401       0.0486
      0.4246       5.4379       0.0000       3.7784       4.7229       1.8750
      0.3730       2.3561
4097.0
      3.9398       3.9513       3.9481       4.0121       3.9063     249.2477
    255.9957       0.1890       0.1588     109.7327      36.7399     134.3131
      6.4571      -0.0017       3.2099       2.8462      90.0401       0.0486
      0.4324       5.2892       0.0000       4.0989       4.7280       2.3125
      0.3731       2.3382
4096.5
      3.9519       3.9655       3.9863       4.0346       3.9652     247.8546
    252.1964       0.1890       0.1797     109.7189      37.8697     134.3801
      6.4571      -0.0055       3.7991       3.3650      90.0401       0.0487
      0.4210       5.1287       0.0000       4.1408       4.7363       2.3125
      0.3730       2.3382
4096.0
      3.9834       4.0045       4.0045       4.1004       4.0417     243.8772
    247.4203       0.1826       0.2285     110.4619      39.4072     134.4556
      6.4571      -0.0069       3.1433       2.7876      90.0401       0.0487
      0.4142       5.0610       0.0000       4.1289       4.7447       1.5625
      0.3782       2.3487
4095.5
      3.9445       3.9824       3.9929       4.1146       4.0701     243.0379
    245.6948       0.1728       0.2703     109.7624      42.4514     134.5020
      6.4571      -0.0070       3.1211       2.7680      90.0401       0.0488
      0.4281       5.0683       0.0000       3.9147       4.7447       1.1875
      0.3733       2.3649
