~Version Information
VERS.                      2.0: CWLS Log ASCII Standard - VERSION 2.0
WRAP.                       NO: One line per depth step
~Well Information Block
STRT.FT                -2.2500: 
STOP.FT              1141.3000: 
STEP.FT                 0.0500: 
NULL.                -999.2500: 
COMP.                         ANADARKO PETROLEUM CORPORATION: COMPANY
WELL.                         DAVIS 32-31: WELL
FLD.                          BILLABONG: FIELD
LOC.                          SW/NE S31 T47N R72W: LOCATION
CNTY.                         CAMPBELL: COUNTY
SRVC.                         GOODWELL, INC.: SERVICE COMPANY
DATE.          			Thu Sep 22 14-57-45 2011: LOG DATE
UWI.                          4900533095: UNIQUE WELL ID
STAT.                         WYOMING: STATE
~Curve Information Block
DEPT.FT            0 000 00 00: Depth
GR.                           : Gamma Ray
TEMP.degF                     : Downhole Temperature
DTMP.degF                     : Delta Temperature
~Parameter Information Block
~A  Depth        GR         TEMP        DTMP    
# ...
   223.2000     56.5840     63.1417     -0.0193
   223.2500     56.5840     63.1417     -0.0193
   223.3000     56.5840     63.1417     -0.0193
   223.3500     56.5840     63.1417     -0.0193
   223.4000     56.2397     63.1369     -0.0197
   223.4500     56.2397     63.1369     -0.0197
   223.5000     56.2397     63.1369     -0.0197
   223.5500     56.2397     63.1369     -0.0197
   223.6000     56.2397     63.1369     -0.0197
   223.6500     55.8333     63.1317     -0.0222
   223.7000     55.8333     63.1317     -0.0222
   223.7500     55.8333     63.1317     -0.0222
   223.8000     55.8333     63.1317     -0.0222
   223.8500     55.8333     63.1317     -0.0222
   223.9000     55.7163     63.1266     -0.0322
   223.9500     55.7163     63.1266     -0.0322
   224.0000     55.7163     63.1266     -0.0322
   224.0500     55.7163     63.1266     -0.0322
   224.1000     55.7163     63.1266     -0.0322
   224.1500     55.8815     63.1217     -0.0575
   224.2000     55.8815     63.1217     -0.0575
   224.2500     55.8815     63.1217     -0.0575
   224.3000     55.8815     63.1217     -0.0575
   224.3500     55.8815     63.1217     -0.0575
   224.4000     56.5427     63.1161     -0.0928
   224.4500     56.5427     63.1161     -0.0928
   224.5000     56.5427     63.1161     -0.0928
   224.5500     56.5427     63.1161     -0.0928
   224.6000     56.5427     63.1161     -0.0928
   224.6500     57.4311     63.1064     -0.1105
   224.7000     57.4311     63.1064     -0.1105
   224.7500     57.4311     63.1064     -0.1105
   224.8000     57.4311     63.1064     -0.1105
   224.8500     57.4311     63.1064     -0.1105
   224.9000     58.1129     63.0819     -0.0921
   224.9500     58.1129     63.0819     -0.0921
   225.0000     58.1129     63.0819     -0.0921
   225.0500     58.1129     63.0819     -0.0921
   225.1000     58.1129     63.0819     -0.0921
   225.1500     58.8499     63.0268     -0.0566
   225.2000     58.8499     63.0268     -0.0566
   225.2500     58.8499     63.0268     -0.0566
   225.3000     58.8499     63.0268     -0.0566
   225.3500     58.8499     63.0268     -0.0566
   225.4000     58.8017     62.9514     -0.0314
   225.4500     58.8017     62.9514     -0.0314
   225.5000     58.8017     62.9514     -0.0314
   225.5500     58.8017     62.9514     -0.0314
   225.6000     58.8017     62.9514     -0.0314
   225.6500     58.9876     62.9107     -0.0207
   225.7000     58.9876     62.9107     -0.0207
   225.7500     58.9876     62.9107     -0.0207
   225.8000     58.9876     62.9107     -0.0207
   225.8500     58.9876     62.9107     -0.0207
   225.9000     59.0978     62.9425     -0.0144
   225.9500     59.0978     62.9425     -0.0144
   226.0000     59.0978     62.9425     -0.0144
   226.0500     59.0978     62.9425     -0.0144
   226.1000     59.0978     62.9425     -0.0144
   226.1500     58.8774     63.0085     -0.0041
   226.2000     58.8774     63.0085     -0.0041
   226.2500     58.8774     63.0085     -0.0041
   226.3000     58.8774     63.0085     -0.0041
   226.3500     58.8774     63.0085     -0.0041
   226.4000     58.8705     63.0534      0.0099
   226.4500     58.8705     63.0534      0.0099
   226.5000     58.8705     63.0534      0.0099
   226.5500     58.8705     63.0534      0.0099
   226.6000     58.8705     63.0534      0.0099
   226.6500     58.8636     63.0651      0.0169
   226.7000     58.8636     63.0651      0.0169
   226.7500     58.8636     63.0651      0.0169
   226.8000     58.8636     63.0651      0.0169
   226.8500     58.8636     63.0651      0.0169
   226.9000     58.4573     63.0530      0.0086
   226.9500     58.4573     63.0530      0.0086
   227.0000     58.4573     63.0530      0.0086
   227.0500     58.4573     63.0530      0.0086
   227.1000     58.4573     63.0530      0.0086
   227.1500     57.4793     63.0185     -0.0110
   227.2000     57.4793     63.0185     -0.0110
   227.2500     57.4793     63.0185     -0.0110
   227.3000     57.4793     63.0185     -0.0110
   227.3500     57.4793     63.0185     -0.0110
   227.4000     56.3395     62.9711     -0.0357
   227.4500     56.3395     62.9711     -0.0357
   227.5000     56.3395     62.9711     -0.0357
   227.5500     56.3395     62.9711     -0.0357
   227.6000     56.3395     62.9711     -0.0357
   227.6500     55.1171     62.9445     -0.0596
   227.7000     55.1171     62.9445     -0.0596
   227.7500     55.1171     62.9445     -0.0596
   227.8000     55.1171     62.9445     -0.0596
   227.8500     55.1171     62.9445     -0.0596
   227.9000     54.0530     62.9596     -0.0658
   227.9500     54.0530     62.9596     -0.0658
   228.0000     54.0530     62.9596     -0.0658
   228.0500     54.0530     62.9596     -0.0658
   228.1000     54.0530     62.9596     -0.0658
   228.1500     53.1956     62.9865     -0.0412
   228.2000     53.1956     62.9865     -0.0412
   228.2500     53.1956     62.9865     -0.0412
   228.3000     53.1956     62.9865     -0.0412
   228.3500     53.1956     62.9865     -0.0412
   228.4000     52.3864     62.9819     -0.0042
   228.4500     52.3864     62.9819     -0.0042
   228.5000     52.3864     62.9819     -0.0042
   228.5500     52.3864     62.9819     -0.0042
   228.6000     52.3864     62.9819     -0.0042
   228.6500     52.1556     62.9459      0.0068
   228.7000     52.1556     62.9459      0.0068
   228.7500     52.1556     62.9459      0.0068
   228.8000     52.1556     62.9459      0.0068
   228.8500     52.1556     62.9459      0.0068
   228.9000     52.2486     62.9213     -0.0187
   228.9500     52.2486     62.9213     -0.0187
   229.0000     52.2486     62.9213     -0.0187
   229.0500     52.2486     62.9213     -0.0187
   229.1000     52.2486     62.9213     -0.0187
   229.1500     52.4518     62.9362     -0.0441
   229.2000     52.4518     62.9362     -0.0441
   229.2500     52.4518     62.9362     -0.0441
   229.3000     52.4518     62.9362     -0.0441
   229.3500     52.4518     62.9362     -0.0441
   229.4000     52.4483     62.9627     -0.0331
   229.4500     52.4483     62.9627     -0.0331
   229.5000     52.4483     62.9627     -0.0331
   229.5500     52.4483     62.9627     -0.0331
   229.6000     52.4483     62.9627     -0.0331
   229.6500     52.3554     62.9581      0.0039
   229.7000     52.3554     62.9581      0.0039
   229.7500     52.3554     62.9581      0.0039
   229.8000     52.3554     62.9581      0.0039
   229.8500     52.3554     62.9581      0.0039
   229.9000     52.0007     62.9223      0.0290
   229.9500     52.0007     62.9223      0.0290
   230.0000     52.0007     62.9223      0.0290
   230.0500     52.0007     62.9223      0.0290
   230.1000     52.0007     62.9223      0.0290
   230.1500     51.3223     62.8983      0.0252
   230.2000     51.3223     62.8983      0.0252
   230.2500     51.3223     62.8983      0.0252
   230.3000     51.3223     62.8983      0.0252
   230.3500     51.3223     62.8983      0.0252
   230.4000     50.8506     62.9157      0.0110
   230.4500     50.8506     62.9157      0.0110
   230.5000     50.8506     62.9157      0.0110
   230.5500     50.8506     62.9157      0.0110
   230.6000     50.8506     62.9157      0.0110
   230.6500     49.9793     62.9537      0.0113
   230.7000     49.9793     62.9537      0.0113
   230.7500     49.9793     62.9537      0.0113
   230.8000     49.9793     62.9537      0.0113
   230.8500     49.9793     62.9537      0.0113
   230.9000     49.2321     62.9794      0.0271
   230.9500     49.2321     62.9794      0.0271
   231.0000     49.2321     62.9794      0.0271
   231.0500     49.2321     62.9794      0.0271
   231.1000     49.2321     62.9794      0.0271
   231.1500     48.5882     62.9866      0.0370
   231.2000     48.5882     62.9866      0.0370
   231.2500     48.5882     62.9866      0.0370
   231.3000     48.5882     62.9866      0.0370
   231.3500     48.5882     62.9866      0.0370
   231.4000     47.2417     62.9848      0.0261
   231.4500     47.2417     62.9848      0.0261
   231.5000     47.2417     62.9848      0.0261
