~Version Information
VERS.                      2.0: CWLS Log ASCII Standard - VERSION 2.0
WRAP.                       NO: One line per depth step
~Well Information Block
STRT.FT                -2.2500: 
STOP.FT              1141.3000: 
STEP.FT                 0.0500: 
NULL.                -999.2500: 
COMP.                         ANADARKO PETROLEUM CORPORATION: COMPANY
WELL.                         DAVIS 32-31: WELL
FLD.                          BILLABONG: FIELD
LOC.                          SW/NE S31 T47N R72W: LOCATION
CNTY.                         CAMPBELL: COUNTY
SRVC.                         GOODWELL, INC.: SERVICE COMPANY
DATE.          			Thu Sep 22 14-57-45 2011: LOG DATE
UWI.                          4900533095: UNIQUE WELL ID
STAT.                         WYOMING: STATE
~Curve Information Block
DEPT.FT            0 000 00 00: Depth
GR.                           : Gamma Ray
TEMP.degF                     : Downhole Temperature
DTMP.degF                     : Delta Temperature
~Parameter Information Block
~A  Depth        GR         TEMP        DTMP    
# ...
   523.8000     37.1970     62.1073      0.0039
   523.8500     37.1970     62.1073      0.0039
   523.9000     37.7066     62.1264      0.0098
   523.9500     37.7066     62.1264      0.0098
   524.0000     37.7066     62.1264      0.0098
   524.0500     37.7066     62.1264      0.0098
   524.1000     37.7066     62.1264      0.0098
   524.1500     38.2576     62.1630      0.0208
   524.2000     38.2576     62.1630      0.0208
   524.2500     38.2576     62.1630      0.0208
   524.3000     38.2576     62.1630      0.0208
   524.3500     38.2576     62.1630      0.0208
   524.4000     38.9945     62.1892      0.0303
   524.4500     38.9945     62.1892      0.0303
   524.5000     38.9945     62.1892      0.0303
   524.5500     38.9945     62.1892      0.0303
   524.6000     38.9945     62.1892      0.0303
   524.6500     39.8967     62.2001      0.0142
   524.7000     39.8967     62.2001      0.0142
   524.7500     39.8967     62.2001      0.0142
   524.8000     39.8967     62.2001      0.0142
   524.8500     39.8967     62.2001      0.0142
   524.9000     40.8815     62.2031     -0.0417
   524.9500     40.8815     62.2031     -0.0417
   525.0000     40.8815     62.2031     -0.0417
   525.0500     40.8815     62.2031     -0.0417
   525.1000     40.8815     62.2031     -0.0417
   525.1500     41.7424     62.2009     -0.1063
   525.2000     41.7424     62.2009     -0.1063
   525.2500     41.7424     62.2009     -0.1063
   525.3000     41.7424     62.2009     -0.1063
   525.3500     41.7424     62.2009     -0.1063
   525.4000     42.4070     62.1852     -0.1276
   525.4500     42.4070     62.1852     -0.1276
   525.5000     42.4070     62.1852     -0.1276
   525.5500     42.4070     62.1852     -0.1276
   525.6000     42.4070     62.1852     -0.1276
   525.6500     42.6171     62.1357     -0.1000
   525.7000     42.6171     62.1357     -0.1000
   525.7500     42.6171     62.1357     -0.1000
   525.8000     42.6171     62.1357     -0.1000
   525.8500     42.6171     62.1357     -0.1000
   525.9000     42.4001     62.0430     -0.0710
   525.9500     42.4001     62.0430     -0.0710
   526.0000     42.4001     62.0430     -0.0710
   526.0500     42.4001     62.0430     -0.0710
   526.1000     42.4001     62.0430     -0.0710
   526.1500     42.0592     61.9503     -0.0748
   526.2000     42.0592     61.9503     -0.0748
   526.2500     42.0592     61.9503     -0.0748
   526.3000     42.0592     61.9503     -0.0748
   526.3500     42.0592     61.9503     -0.0748
   526.4000     41.7252     61.9339     -0.0878
   526.4500     41.7252     61.9339     -0.0878
   526.5000     41.7252     61.9339     -0.0878
   526.5500     41.7252     61.9339     -0.0878
   526.6000     41.7252     61.9339     -0.0878
   526.6500     41.1846     62.0001     -0.0602
   526.7000     41.1846     62.0001     -0.0602
   526.7500     41.1846     62.0001     -0.0602
   526.8000     41.1846     62.0001     -0.0602
   526.8500     41.1846     62.0001     -0.0602
   526.9000     40.5200     62.0611      0.0193
   526.9500     40.5200     62.0611      0.0193
   527.0000     40.5200     62.0611      0.0193
   527.0500     40.5200     62.0611      0.0193
   527.1000     40.5200     62.0611      0.0193
   527.1500     39.7727     62.0513      0.1027
   527.2000     39.7727     62.0513      0.1027
   527.2500     39.7727     62.0513      0.1027
   527.3000     39.7727     62.0513      0.1027
   527.3500     39.7727     62.0513      0.1027
   527.4000     38.4470     62.0096      0.1326
   527.4500     38.4470     62.0096      0.1326
   527.5000     38.4470     62.0096      0.1326
   527.5500     38.4470     62.0096      0.1326
   527.6000     38.4470     62.0096      0.1326
   527.6500     36.2121     62.0153      0.1073
   527.7000     36.2121     62.0153      0.1073
   527.7500     36.2121     62.0153      0.1073
   527.8000     36.2121     62.0153      0.1073
   527.8500     36.2121     62.0153      0.1073
   527.9000     34.1839     62.0815      0.0786
   527.9500     34.1839     62.0815      0.0786
   528.0000     34.1839     62.0815      0.0786
   528.0500     34.1839     62.0815      0.0786
   528.1000     34.1839     62.0815      0.0786
   528.1500     32.3416     62.1557      0.0839
   528.2000     32.3416     62.1557      0.0839
   528.2500     32.3416     62.1557      0.0839
   528.3000     32.3416     62.1557      0.0839
   528.3500     32.3416     62.1557      0.0839
   528.4000     30.8299     62.1991      0.1050
   528.4500     30.8299     62.1991      0.1050
   528.5000     30.8299     62.1991      0.1050
   528.5500     30.8299     62.1991      0.1050
   528.6000     30.8299     62.1991      0.1050
   528.6500     29.5110     62.2147      0.1028
   528.7000     29.5110     62.2147      0.1028
   528.7500     29.5110     62.2147      0.1028
   528.8000     29.5110     62.2147      0.1028
   528.8500     29.5110     62.2147      0.1028
   528.9000     28.1508     62.2183      0.0702
   528.9500     28.1508     62.2183      0.0702
   529.0000     28.1508     62.2183      0.0702
   529.0500     28.1508     62.2183      0.0702
   529.1000     28.1508     62.2183      0.0702
   529.1500     26.9353     62.2190      0.0335
   529.2000     26.9353     62.2190      0.0335
   529.2500     26.9353     62.2190      0.0335
   529.3000     26.9353     62.2190      0.0335
   529.3500     26.9353     62.2190      0.0335
   529.4000     25.8643     62.2197      0.0122
   529.4500     25.8643     62.2197      0.0122
   529.5000     25.8643     62.2197      0.0122
   529.5500     25.8643     62.2197      0.0122
   529.6000     25.8643     62.2197      0.0122
   529.6500     24.8347     62.2209      0.0048
   529.7000     24.8347     62.2209      0.0048
   529.7500     24.8347     62.2209      0.0048
   529.8000     24.8347     62.2209      0.0048
   529.8500     24.8347     62.2209      0.0048
   529.9000     23.7638     62.2220      0.0035
   529.9500     23.7638     62.2220      0.0035
   530.0000     23.7638     62.2220      0.0035
   530.0500     23.7638     62.2220      0.0035
   530.1000     23.7638     62.2220      0.0035
   530.1500     23.1887     62.2228      0.0036
   530.2000     23.1887     62.2228      0.0036
   530.2500     23.1887     62.2228      0.0036
   530.3000     23.1887     62.2228      0.0036
   530.3500     23.1887     62.2228      0.0036
   530.4000     23.4814     62.2234      0.0038
   530.4500     23.4814     62.2234      0.0038
   530.5000     23.4814     62.2234      0.0038
   530.5500     23.4814     62.2234      0.0038
   530.6000     23.4814     62.2234      0.0038
   530.6500     23.6501     62.2242      0.0036
   530.7000     23.6501     62.2242      0.0036
   530.7500     23.6501     62.2242      0.0036
   530.8000     23.6501     62.2242      0.0036
   530.8500     23.6501     62.2242      0.0036
   530.9000     24.0771     62.2253      0.0033
   530.9500     24.0771     62.2253      0.0033
   531.0000     24.0771     62.2253      0.0033
   531.0500     24.0771     62.2253      0.0033
   531.1000     24.0771     62.2253      0.0033
   531.1500     24.7521     62.2263      0.0033
   531.2000     24.7521     62.2263      0.0033
   531.2500     24.7521     62.2263      0.0033
   531.3000     24.7521     62.2263      0.0033
   531.3500     24.7521     62.2263      0.0033
   531.4000     25.5785     62.2273      0.0036
   531.4500     25.5785     62.2273      0.0036
   531.5000     25.5785     62.2273      0.0036
   531.5500     25.5785     62.2273      0.0036
   531.6000     25.5785     62.2273      0.0036
   531.6500     26.3636     62.2280      0.0039
   531.7000     26.3636     62.2280      0.0039
   531.7500     26.3636     62.2280      0.0039
   531.8000     26.3636     62.2280      0.0039
   531.8500     26.3636     62.2280      0.0039
   531.9000     27.0661     62.2286      0.0028
   531.9500     27.0661     62.2286      0.0028
   532.0000     27.0661     62.2286      0.0028
   532.0500     27.0661     62.2286      0.0028
   532.1000     27.0661     62.2286      0.0028
