~Version Information
VERS.                      2.0: CWLS Log ASCII Standard - VERSION 2.0
WRAP.                       NO: One line per depth step
~Well Information Block
STRT.FT                -2.2500: 
STOP.FT              1141.3000: 
STEP.FT                 0.0500: 
NULL.                -999.2500: 
COMP.                         ANADARKO PETROLEUM CORPORATION: COMPANY
WELL.                         DAVIS 32-31: WELL
FLD.                          BILLABONG: FIELD
LOC.                          SW/NE S31 T47N R72W: LOCATION
CNTY.                         CAMPBELL: COUNTY
SRVC.                         GOODWELL, INC.: SERVICE COMPANY
DATE.          			Thu Sep 22 14-57-45 2011: LOG DATE
UWI.                          4900533095: UNIQUE WELL ID
STAT.                         WYOMING: STATE
~Curve Information Block
DEPT.FT            0 000 00 00: Depth
GR.                           : Gamma Ray
TEMP.degF                     : Downhole Temperature
DTMP.degF                     : Delta Temperature
~Parameter Information Block
~A  Depth        GR         TEMP        DTMP    
# ...
   148.0500     46.7700     64.9482     -0.0217
   148.1000     46.7700     64.9482     -0.0217
   148.1500     44.9862     64.8697     -0.0201
   148.2000     44.9862     64.8697     -0.0201
   148.2500     44.9862     64.8697     -0.0201
   148.3000     44.9862     64.8697     -0.0201
   148.3500     44.9862     64.8697     -0.0201
   148.4000     43.6226     64.8256     -0.0249
   148.4500     43.6226     64.8256     -0.0249
   148.5000     43.6226     64.8256     -0.0249
   148.5500     43.6226     64.8256     -0.0249
   148.6000     43.6226     64.8256     -0.0249
   148.6500     42.1625     64.8541     -0.0239
   148.7000     42.1625     64.8541     -0.0239
   148.7500     42.1625     64.8541     -0.0239
   148.8000     42.1625     64.8541     -0.0239
   148.8500     42.1625     64.8541     -0.0239
   148.9000     41.4325     64.9173     -0.0126
   148.9500     41.4325     64.9173     -0.0126
   149.0000     41.4325     64.9173     -0.0126
   149.0500     41.4325     64.9173     -0.0126
   149.1000     41.4325     64.9173     -0.0126
   149.1500     41.2190     64.9594      0.0051
   149.2000     41.2190     64.9594      0.0051
   149.2500     41.2190     64.9594      0.0051
   149.3000     41.2190     64.9594      0.0051
   149.3500     41.2190     64.9594      0.0051
   149.4000     41.5220     64.9688      0.0143
   149.4500     41.5220     64.9688      0.0143
   149.5000     41.5220     64.9688      0.0143
   149.5500     41.5220     64.9688      0.0143
   149.6000     41.5220     64.9688      0.0143
   149.6500     41.7493     64.9556      0.0053
   149.7000     41.7493     64.9556      0.0053
   149.7500     41.7493     64.9556      0.0053
   149.8000     41.7493     64.9556      0.0053
   149.8500     41.7493     64.9556      0.0053
   149.9000     42.3760     64.9231     -0.0123
   149.9500     42.3760     64.9231     -0.0123
   150.0000     42.3760     64.9231     -0.0123
   150.0500     42.3760     64.9231     -0.0123
   150.1000     42.3760     64.9231     -0.0123
   150.1500     43.3127     64.8798     -0.0246
   150.2000     43.3127     64.8798     -0.0246
   150.2500     43.3127     64.8798     -0.0246
   150.3000     43.3127     64.8798     -0.0246
   150.3500     43.3127     64.8798     -0.0246
   150.4000     44.8347     64.8541     -0.0283
   150.4500     44.8347     64.8541     -0.0283
   150.5000     44.8347     64.8541     -0.0283
   150.5500     44.8347     64.8541     -0.0283
   150.6000     44.8347     64.8541     -0.0283
   150.6500     46.8113     64.8648     -0.0245
   150.7000     46.8113     64.8648     -0.0245
   150.7500     46.8113     64.8648     -0.0245
   150.8000     46.8113     64.8648     -0.0245
   150.8500     46.8113     64.8648     -0.0245
   150.9000     49.1253     64.8927     -0.0119
   150.9500     49.1253     64.8927     -0.0119
   151.0000     49.1253     64.8927     -0.0119
   151.0500     49.1253     64.8927     -0.0119
   151.1000     49.1253     64.8927     -0.0119
   151.1500     51.7011     64.9102      0.0060
   151.2000     51.7011     64.9102      0.0060
   151.2500     51.7011     64.9102      0.0060
   151.3000     51.7011     64.9102      0.0060
   151.3500     51.7011     64.9102      0.0060
   151.4000     54.5110     64.9122      0.0152
   151.4500     54.5110     64.9122      0.0152
   151.5000     54.5110     64.9122      0.0152
   151.5500     54.5110     64.9122      0.0152
   151.6000     54.5110     64.9122      0.0152
   151.6500     56.7906     64.9066      0.0063
   151.7000     56.7906     64.9066      0.0063
   151.7500     56.7906     64.9066      0.0063
   151.8000     56.7906     64.9066      0.0063
   151.8500     56.7906     64.9066      0.0063
   151.9000     58.7328     64.8992     -0.0113
   151.9500     58.7328     64.8992     -0.0113
   152.0000     58.7328     64.8992     -0.0113
   152.0500     58.7328     64.8992     -0.0113
   152.1000     58.7328     64.8992     -0.0113
   152.1500     60.6267     64.8917     -0.0237
   152.2000     60.6267     64.8917     -0.0237
   152.2500     60.6267     64.8917     -0.0237
   152.3000     60.6267     64.8917     -0.0237
   152.3500     60.6267     64.8917     -0.0237
   152.4000     62.8926     64.8845     -0.0285
   152.4500     62.8926     64.8845     -0.0285
   152.5000     62.8926     64.8845     -0.0285
   152.5500     62.8926     64.8845     -0.0285
   152.6000     62.8926     64.8845     -0.0285
   152.6500     65.0207     64.8773     -0.0298
   152.7000     65.0207     64.8773     -0.0298
   152.7500     65.0207     64.8773     -0.0298
   152.8000     65.0207     64.8773     -0.0298
   152.8500     65.0207     64.8773     -0.0298
   152.9000     66.6598     64.8701     -0.0313
   152.9500     66.6598     64.8701     -0.0313
   153.0000     66.6598     64.8701     -0.0313
   153.0500     66.6598     64.8701     -0.0313
   153.1000     66.6598     64.8701     -0.0313
   153.1500     68.0510     64.8627     -0.0372
   153.2000     68.0510     64.8627     -0.0372
   153.2500     68.0510     64.8627     -0.0372
   153.3000     68.0510     64.8627     -0.0372
   153.3500     68.0510     64.8627     -0.0372
   153.4000     69.1942     64.8551     -0.0526
   153.4500     69.1942     64.8551     -0.0526
   153.5000     69.1942     64.8551     -0.0526
   153.5500     69.1942     64.8551     -0.0526
   153.6000     69.1942     64.8551     -0.0526
   153.6500     70.3237     64.8470     -0.0754
   153.7000     70.3237     64.8470     -0.0754
   153.7500     70.3237     64.8470     -0.0754
   153.8000     70.3237     64.8470     -0.0754
   153.8500     70.3237     64.8470     -0.0754
   153.9000     70.7507     64.8367     -0.0922
   153.9500     70.7507     64.8367     -0.0922
   154.0000     70.7507     64.8367     -0.0922
   154.0500     70.7507     64.8367     -0.0922
   154.1000     70.7507     64.8367     -0.0922
   154.1500     71.0124     64.8174     -0.0963
   154.2000     71.0124     64.8174     -0.0963
   154.2500     71.0124     64.8174     -0.0963
   154.3000     71.0124     64.8174     -0.0963
   154.3500     71.0124     64.8174     -0.0963
   154.4000     71.3154     64.7793     -0.0961
   154.4500     71.3154     64.7793     -0.0961
   154.5000     71.3154     64.7793     -0.0961
   154.5500     71.3154     64.7793     -0.0961
   154.6000     71.3154     64.7793     -0.0961
   154.6500     71.5840     64.7265     -0.0917
   154.7000     71.5840     64.7265     -0.0917
   154.7500     71.5840     64.7265     -0.0917
   154.8000     71.5840     64.7265     -0.0917
   154.8500     71.5840     64.7265     -0.0917
   154.9000     70.9573     64.6858     -0.0748
   154.9500     70.9573     64.6858     -0.0748
   155.0000     70.9573     64.6858     -0.0748
   155.0500     70.9573     64.6858     -0.0748
   155.1000     70.9573     64.6858     -0.0748
   155.1500     69.4008     64.6702     -0.0522
   155.2000     69.4008     64.6702     -0.0522
   155.2500     69.4008     64.6702     -0.0522
   155.3000     69.4008     64.6702     -0.0522
   155.3500     69.4008     64.6702     -0.0522
   155.4000     67.6791     64.6629     -0.0381
   155.4500     67.6791     64.6629     -0.0381
   155.5000     67.6791     64.6629     -0.0381
   155.5500     67.6791     64.6629     -0.0381
   155.6000     67.6791     64.6629     -0.0381
   155.6500     65.9229     64.6636     -0.0389
   155.7000     65.9229     64.6636     -0.0389
   155.7500     65.9229     64.6636     -0.0389
   155.8000     65.9229     64.6636     -0.0389
   155.8500     65.9229     64.6636     -0.0389
   155.9000     64.0014     64.6870     -0.0566
   155.9500     64.0014     64.6870     -0.0566
   156.0000     64.0014     64.6870     -0.0566
   156.0500     64.0014     64.6870     -0.0566
   156.1000     64.0014     64.6870     -0.0566
   156.1500     61.8113     64.7130     -0.0881
   156.2000     61.8113     64.7130     -0.0881
   156.2500     61.8113     64.7130     -0.0881
   156.3000     61.8113     64.7130     -0.0881
   156.3500     61.8113     64.7130     -0.0881
