~Version Information
VERS.                      2.0: CWLS Log ASCII Standard - VERSION 2.0
WRAP.                       NO: One line per depth step
~Well Information Block
STRT.FT                -2.2500: 
STOP.FT              1141.3000: 
STEP.FT                 0.0500: 
NULL.                -999.2500: 
COMP.                         ANADARKO PETROLEUM CORPORATION: COMPANY
WELL.                         DAVIS 32-31: WELL
FLD.                          BILLABONG: FIELD
LOC.                          SW/NE S31 T47N R72W: LOCATION
CNTY.                         CAMPBELL: COUNTY
SRVC.                         GOODWELL, INC.: SERVICE COMPANY
DATE.          			Thu Sep 22 14-57-45 2011: LOG DATE
UWI.                          4900533095: UNIQUE WELL ID
STAT.                         WYOMING: STATE
~Curve Information Block
DEPT.FT            0 000 00 00: Depth
GR.                           : Gamma Ray
TEMP.degF                     : Downhole Temperature
DTMP.degF                     : Delta Temperature
~Parameter Information Block
~A  Depth        GR         TEMP        DTMP    
# ...
   974.7000     54.5558     67.6379     -0.0112
   974.7500     54.5558     67.6379     -0.0112
   974.8000     54.5558     67.6379     -0.0112
   974.8500     54.5558     67.6379     -0.0112
   974.9000     54.5937     67.6680      0.0265
   974.9500     54.5937     67.6680      0.0265
   975.0000     54.5937     67.6680      0.0265
   975.0500     54.5937     67.6680      0.0265
   975.1000     54.5937     67.6680      0.0265
   975.1500     55.2514     67.6562      0.0603
   975.2000     55.2514     67.6562      0.0603
   975.2500     55.2514     67.6562      0.0603
   975.3000     55.2514     67.6562      0.0603
   975.3500     55.2514     67.6562      0.0603
   975.4000     56.3326     67.6208      0.0558
   975.4500     56.3326     67.6208      0.0558
   975.5000     56.3326     67.6208      0.0558
   975.5500     56.3326     67.6208      0.0558
   975.6000     56.3326     67.6208      0.0558
   975.6500     57.4690     67.6033      0.0205
   975.7000     57.4690     67.6033      0.0205
   975.7500     57.4690     67.6033      0.0205
   975.8000     57.4690     67.6033      0.0205
   975.8500     57.4690     67.6033      0.0205
   975.9000     58.2335     67.6288     -0.0141
   975.9500     58.2335     67.6288     -0.0141
   976.0000     58.2335     67.6288     -0.0141
   976.0500     58.2335     67.6288     -0.0141
   976.1000     58.2335     67.6288     -0.0141
   976.1500     58.9015     67.6725     -0.0230
   976.2000     58.9015     67.6725     -0.0230
   976.2500     58.9015     67.6725     -0.0230
   976.3000     58.9015     67.6725     -0.0230
   976.3500     58.9015     67.6725     -0.0230
   976.4000     59.8588     67.6945     -0.0075
   976.4500     59.8588     67.6945     -0.0075
   976.5000     59.8588     67.6945     -0.0075
   976.5500     59.8588     67.6945     -0.0075
   976.6000     59.8588     67.6945     -0.0075
   976.6500     60.8574     67.6789      0.0031
   976.7000     60.8574     67.6789      0.0031
   976.7500     60.8574     67.6789      0.0031
   976.8000     60.8574     67.6789      0.0031
   976.8500     60.8574     67.6789      0.0031
   976.9000     61.4842     67.6397     -0.0034
   976.9500     61.4842     67.6397     -0.0034
   977.0000     61.4842     67.6397     -0.0034
   977.0500     61.4842     67.6397     -0.0034
   977.1000     61.4842     67.6397     -0.0034
   977.1500     62.4552     67.6102     -0.0065
   977.2000     62.4552     67.6102     -0.0065
   977.2500     62.4552     67.6102     -0.0065
   977.3000     62.4552     67.6102     -0.0065
   977.3500     62.4552     67.6102     -0.0065
   977.4000     62.8375     67.6057      0.0074
   977.4500     62.8375     67.6057      0.0074
   977.5000     62.8375     67.6057      0.0074
   977.5500     62.8375     67.6057      0.0074
   977.6000     62.8375     67.6057      0.0074
   977.6500     63.2472     67.6096      0.0327
   977.7000     63.2472     67.6096      0.0327
   977.7500     63.2472     67.6096      0.0327
   977.8000     63.2472     67.6096      0.0327
   977.8500     63.2472     67.6096      0.0327
   977.9000     63.1612     67.6219      0.0603
   977.9500     63.1612     67.6219      0.0603
   978.0000     63.1612     67.6219      0.0603
   978.0500     63.1612     67.6219      0.0603
   978.1000     63.1612     67.6219      0.0603
   978.1500     62.6412     67.6595      0.0782
   978.2000     62.6412     67.6595      0.0782
   978.2500     62.6412     67.6595      0.0782
   978.3000     62.6412     67.6595      0.0782
   978.3500     62.6412     67.6595      0.0782
   978.4000     61.6391     67.7093      0.0813
   978.4500     61.6391     67.7093      0.0813
   978.5000     61.6391     67.7093      0.0813
   978.5500     61.6391     67.7093      0.0813
   978.6000     61.6391     67.7093      0.0813
   978.6500     60.8437     67.7443      0.0763
   978.7000     60.8437     67.7443      0.0763
   978.7500     60.8437     67.7443      0.0763
   978.8000     60.8437     67.7443      0.0763
   978.8500     60.8437     67.7443      0.0763
   978.9000     60.1309     67.7603      0.0593
   978.9500     60.1309     67.7603      0.0593
   979.0000     60.1309     67.7603      0.0593
   979.0500     60.1309     67.7603      0.0593
   979.1000     60.1309     67.7603      0.0593
   979.1500     59.5523     67.7666      0.0245
   979.2000     59.5523     67.7666      0.0245
   979.2500     59.5523     67.7666      0.0245
   979.3000     59.5523     67.7666      0.0245
   979.3500     59.5523     67.7666      0.0245
   979.4000     58.6846     67.7684     -0.0076
   979.4500     58.6846     67.7684     -0.0076
   979.5000     58.6846     67.7684     -0.0076
   979.5500     58.6846     67.7684     -0.0076
   979.6000     58.6846     67.7684     -0.0076
   979.6500     57.7755     67.7622     -0.0155
   979.7000     57.7755     67.7622     -0.0155
   979.7500     57.7755     67.7622     -0.0155
   979.8000     57.7755     67.7622     -0.0155
   979.8500     57.7755     67.7622     -0.0155
   979.9000     56.7700     67.7405     -0.0097
   979.9500     56.7700     67.7405     -0.0097
   980.0000     56.7700     67.7405     -0.0097
   980.0500     56.7700     67.7405     -0.0097
   980.1000     56.7700     67.7405     -0.0097
   980.1500     56.4050     67.7086     -0.0137
   980.2000     56.4050     67.7086     -0.0137
   980.2500     56.4050     67.7086     -0.0137
   980.3000     56.4050     67.7086     -0.0137
   980.3500     56.4050     67.7086     -0.0137
   980.4000     55.8333     67.6940     -0.0293
   980.4500     55.8333     67.6940     -0.0293
   980.5000     55.8333     67.6940     -0.0293
   980.5500     55.8333     67.6940     -0.0293
   980.6000     55.8333     67.6940     -0.0293
   980.6500     55.4683     67.7133     -0.0356
   980.7000     55.4683     67.7133     -0.0356
   980.7500     55.4683     67.7133     -0.0356
   980.8000     55.4683     67.7133     -0.0356
   980.8500     55.4683     67.7133     -0.0356
   980.9000     55.1274     67.7408     -0.0193
   980.9500     55.1274     67.7408     -0.0193
   981.0000     55.1274     67.7408     -0.0193
   981.0500     55.1274     67.7408     -0.0193
   981.1000     55.1274     67.7408     -0.0193
   981.1500     55.3926     67.7392     -0.0026
   981.2000     55.3926     67.7392     -0.0026
   981.2500     55.3926     67.7392     -0.0026
   981.3000     55.3926     67.7392     -0.0026
   981.3500     55.3926     67.7392     -0.0026
   981.4000     55.7094     67.7097     -0.0189
   981.4500     55.7094     67.7097     -0.0189
   981.5000     55.7094     67.7097     -0.0189
   981.5500     55.7094     67.7097     -0.0189
   981.6000     55.7094     67.7097     -0.0189
   981.6500     55.9022     67.6910     -0.0588
   981.7000     55.9022     67.6910     -0.0588
   981.7500     55.9022     67.6910     -0.0588
   981.8000     55.9022     67.6910     -0.0588
   981.8500     55.9022     67.6910     -0.0588
   981.9000     55.9642     67.7019     -0.0724
   981.9500     55.9642     67.7019     -0.0724
   982.0000     55.9642     67.7019     -0.0724
   982.0500     55.9642     67.7019     -0.0724
   982.1000     55.9642     67.7019     -0.0724
   982.1500     56.1915     67.7033     -0.0360
   982.2000     56.1915     67.7033     -0.0360
   982.2500     56.1915     67.7033     -0.0360
   982.3000     56.1915     67.7033     -0.0360
   982.3500     56.1915     67.7033     -0.0360
   982.4000     56.5840     67.6562      0.0166
   982.4500     56.5840     67.6562      0.0166
   982.5000     56.5840     67.6562      0.0166
   982.5500     56.5840     67.6562      0.0166
   982.6000     56.5840     67.6562      0.0166
   982.6500     56.9628     67.5957      0.0373
   982.7000     56.9628     67.5957      0.0373
   982.7500     56.9628     67.5957      0.0373
   982.8000     56.9628     67.5957      0.0373
   982.8500     56.9628     67.5957      0.0373
   982.9000     57.2899     67.5959      0.0208
   982.9500     57.2899     67.5959      0.0208
   983.0000     57.2899     67.5959      0.0208
