~Version Information
VERS.                      2.0: CWLS Log ASCII Standard - VERSION 2.0
WRAP.                       NO: One line per depth step
~Well Information Block
STRT.FT                -2.2500: 
STOP.FT              1141.3000: 
STEP.FT                 0.0500: 
NULL.                -999.2500: 
COMP.                         ANADARKO PETROLEUM CORPORATION: COMPANY
WELL.                         DAVIS 32-31: WELL
FLD.                          BILLABONG: FIELD
LOC.                          SW/NE S31 T47N R72W: LOCATION
CNTY.                         CAMPBELL: COUNTY
SRVC.                         GOODWELL, INC.: SERVICE COMPANY
DATE.          			Thu Sep 22 14-57-45 2011: LOG DATE
UWI.                          4900533095: UNIQUE WELL ID
STAT.                         WYOMING: STATE
~Curve Information Block
DEPT.FT            0 000 00 00: Depth
GR.                           : Gamma Ray
TEMP.degF                     : Downhole Temperature
DTMP.degF                     : Delta Temperature
~Parameter Information Block
~A  Depth        GR         TEMP        DTMP    
# ...
  1049.8500     48.8223     74.7428      0.3212
  1049.9000     46.1088     74.7731      0.2573
  1049.9500     46.1088     74.7731      0.2573
  1050.0000     46.1088     74.7731      0.2573
  1050.0500     46.1088     74.7731      0.2573
  1050.1000     46.1088     74.7731      0.2573
  1050.1500     43.1336     74.8794      0.2083
  1050.2000     43.1336     74.8794      0.2083
  1050.2500     43.1336     74.8794      0.2083
  1050.3000     43.1336     74.8794      0.2083
  1050.3500     43.1336     74.8794      0.2083
  1050.4000     39.9587     75.0047      0.2004
  1050.4500     39.9587     75.0047      0.2004
  1050.5000     39.9587     75.0047      0.2004
  1050.5500     39.9587     75.0047      0.2004
  1050.6000     39.9587     75.0047      0.2004
  1050.6500     36.9284     75.0796      0.2336
  1050.7000     36.9284     75.0796      0.2336
  1050.7500     36.9284     75.0796      0.2336
  1050.8000     36.9284     75.0796      0.2336
  1050.8500     36.9284     75.0796      0.2336
  1050.9000     33.6364     75.1081      0.2795
  1050.9500     33.6364     75.1081      0.2795
  1051.0000     33.6364     75.1081      0.2795
  1051.0500     33.6364     75.1081      0.2795
  1051.1000     33.6364     75.1081      0.2795
  1051.1500     30.6267     75.1236      0.3003
  1051.2000     30.6267     75.1236      0.3003
  1051.2500     30.6267     75.1236      0.3003
  1051.3000     30.6267     75.1236      0.3003
  1051.3500     30.6267     75.1236      0.3003
  1051.4000     27.5207     75.1473      0.2943
  1051.4500     27.5207     75.1473      0.2943
  1051.5000     27.5207     75.1473      0.2943
  1051.5500     27.5207     75.1473      0.2943
  1051.6000     27.5207     75.1473      0.2943
  1051.6500     24.6901     75.2100      0.2881
  1051.7000     24.6901     75.2100      0.2881
  1051.7500     24.6901     75.2100      0.2881
  1051.8000     24.6901     75.2100      0.2881
  1051.8500     24.6901     75.2100      0.2881
  1051.9000     22.1970     75.3320      0.3019
  1051.9500     22.1970     75.3320      0.3019
  1052.0000     22.1970     75.3320      0.3019
  1052.0500     22.1970     75.3320      0.3019
  1052.1000     22.1970     75.3320      0.3019
  1052.1500     20.0758     75.4801      0.3391
  1052.2000     20.0758     75.4801      0.3391
  1052.2500     20.0758     75.4801      0.3391
  1052.3000     20.0758     75.4801      0.3391
  1052.3500     20.0758     75.4801      0.3391
  1052.4000     18.0579     75.5934      0.3821
  1052.4500     18.0579     75.5934      0.3821
  1052.5000     18.0579     75.5934      0.3821
  1052.5500     18.0579     75.5934      0.3821
  1052.6000     18.0579     75.5934      0.3821
  1052.6500     16.3154     75.6558      0.4000
  1052.7000     16.3154     75.6558      0.4000
  1052.7500     16.3154     75.6558      0.4000
  1052.8000     16.3154     75.6558      0.4000
  1052.8500     16.3154     75.6558      0.4000
  1052.9000     14.8554     75.7119      0.3793
  1052.9500     14.8554     75.7119      0.3793
  1053.0000     14.8554     75.7119      0.3793
  1053.0500     14.8554     75.7119      0.3793
  1053.1000     14.8554     75.7119      0.3793
  1053.1500     13.5882     75.8018      0.3412
  1053.2000     13.5882     75.8018      0.3412
  1053.2500     13.5882     75.8018      0.3412
  1053.3000     13.5882     75.8018      0.3412
  1053.3500     13.5882     75.8018      0.3412
  1053.4000     12.2658     75.9115      0.3194
  1053.4500     12.2658     75.9115      0.3194
  1053.5000     12.2658     75.9115      0.3194
  1053.5500     12.2658     75.9115      0.3194
  1053.6000     12.2658     75.9115      0.3194
  1053.6500     11.2190     76.0099      0.3229
  1053.7000     11.2190     76.0099      0.3229
  1053.7500     11.2190     76.0099      0.3229
  1053.8000     11.2190     76.0099      0.3229
  1053.8500     11.2190     76.0099      0.3229
  1053.9000     10.3926     76.0906      0.3290
  1053.9500     10.3926     76.0906      0.3290
  1054.0000     10.3926     76.0906      0.3290
  1054.0500     10.3926     76.0906      0.3290
  1054.1000     10.3926     76.0906      0.3290
  1054.1500      9.6074     76.1624      0.3174
  1054.2000      9.6074     76.1624      0.3174
  1054.2500      9.6074     76.1624      0.3174
  1054.3000      9.6074     76.1624      0.3174
  1054.3500      9.6074     76.1624      0.3174
  1054.4000      8.7534     76.2321      0.2952
  1054.4500      8.7534     76.2321      0.2952
  1054.5000      8.7534     76.2321      0.2952
  1054.5500      8.7534     76.2321      0.2952
  1054.6000      8.7534     76.2321      0.2952
  1054.6500      7.8581     76.3015      0.2783
  1054.7000      7.8581     76.3015      0.2783
  1054.7500      7.8581     76.3015      0.2783
  1054.8000      7.8581     76.3015      0.2783
  1054.8500      7.8581     76.3015      0.2783
  1054.9000      6.9146     76.3700      0.2704
  1054.9500      6.9146     76.3700      0.2704
  1055.0000      6.9146     76.3700      0.2704
  1055.0500      6.9146     76.3700      0.2704
  1055.1000      6.9146     76.3700      0.2704
  1055.1500      6.0055     76.4367      0.2671
  1055.2000      6.0055     76.4367      0.2671
  1055.2500      6.0055     76.4367      0.2671
  1055.3000      6.0055     76.4367      0.2671
  1055.3500      6.0055     76.4367      0.2671
  1055.4000      5.1722     76.5019      0.2656
  1055.4500      5.1722     76.5019      0.2656
  1055.5000      5.1722     76.5019      0.2656
  1055.5500      5.1722     76.5019      0.2656
  1055.6000      5.1722     76.5019      0.2656
  1055.6500      4.3664     76.5666      0.2648
  1055.7000      4.3664     76.5666      0.2648
  1055.7500      4.3664     76.5666      0.2648
  1055.8000      4.3664     76.5666      0.2648
  1055.8500      4.3664     76.5666      0.2648
  1055.9000      3.7741     76.6313      0.2650
  1055.9500      3.7741     76.6313      0.2650
  1056.0000      3.7741     76.6313      0.2650
  1056.0500      3.7741     76.6313      0.2650
  1056.1000      3.7741     76.6313      0.2650
  1056.1500      3.3540     76.6967      0.2659
  1056.2000      3.3540     76.6967      0.2659
  1056.2500      3.3540     76.6967      0.2659
  1056.3000      3.3540     76.6967      0.2659
  1056.3500      3.3540     76.6967      0.2659
  1056.4000      3.0372     76.7633      0.2645
  1056.4500      3.0372     76.7633      0.2645
  1056.5000      3.0372     76.7633      0.2645
  1056.5500      3.0372     76.7633      0.2645
  1056.6000      3.0372     76.7633      0.2645
  1056.6500      2.7961     76.8311      0.2562
  1056.7000      2.7961     76.8311      0.2562
  1056.7500      2.7961     76.8311      0.2562
  1056.8000      2.7961     76.8311      0.2562
  1056.8500      2.7961     76.8311      0.2562
  1056.9000      2.7204     76.9000      0.2432
  1056.9500      2.7204     76.9000      0.2432
  1057.0000      2.7204     76.9000      0.2432
  1057.0500      2.7204     76.9000      0.2432
  1057.1000      2.7204     76.9000      0.2432
  1057.1500      2.7961     76.9685      0.2392
  1057.2000      2.7961     76.9685      0.2392
  1057.2500      2.7961     76.9685      0.2392
  1057.3000      2.7961     76.9685      0.2392
  1057.3500      2.7961     76.9685      0.2392
  1057.4000      2.8926     77.0310      0.2530
  1057.4500      2.8926     77.0310      0.2530
  1057.5000      2.8926     77.0310      0.2530
  1057.5500      2.8926     77.0310      0.2530
  1057.6000      2.8926     77.0310      0.2530
  1057.6500      3.0028     77.0790      0.2744
  1057.7000      3.0028     77.0790      0.2744
  1057.7500      3.0028     77.0790      0.2744
  1057.8000      3.0028     77.0790      0.2744
  1057.8500      3.0028     77.0790      0.2744
  1057.9000      3.1818     77.1178      0.2892
  1057.9500      3.1818     77.1178      0.2892
  1058.0000      3.1818     77.1178      0.2892
  1058.0500      3.1818     77.1178      0.2892
  1058.1000      3.1818     77.1178      0.2892
  1058.1500      3.2782     77.1751      0.2957
