~Version Information
VERS.                      2.0: CWLS Log ASCII Standard - VERSION 2.0
WRAP.                       NO: One line per depth step
~Well Information Block
STRT.FT                -2.2500: 
STOP.FT              1141.3000: 
STEP.FT                 0.0500: 
NULL.                -999.2500: 
COMP.                         ANADARKO PETROLEUM CORPORATION: COMPANY
WELL.                         DAVIS 32-31: WELL
FLD.                          BILLABONG: FIELD
LOC.                          SW/NE S31 T47N R72W: LOCATION
CNTY.                         CAMPBELL: COUNTY
SRVC.                         GOODWELL, INC.: SERVICE COMPANY
DATE.          			Thu Sep 22 14-57-45 2011: LOG DATE
UWI.                          4900533095: UNIQUE WELL ID
STAT.                         WYOMING: STATE
~Curve Information Block
DEPT.FT            0 000 00 00: Depth
GR.                           : Gamma Ray
TEMP.degF                     : Downhole Temperature
DTMP.degF                     : Delta Temperature
~Parameter Information Block
~A  Depth        GR         TEMP        DTMP    
# ...
   824.4000     57.0868     65.1039      0.1838
   824.4500     57.0868     65.1039      0.1838
   824.5000     57.0868     65.1039      0.1838
   824.5500     57.0868     65.1039      0.1838
   824.6000     57.0868     65.1039      0.1838
   824.6500     56.9490     65.1445      0.1954
   824.7000     56.9490     65.1445      0.1954
   824.7500     56.9490     65.1445      0.1954
   824.8000     56.9490     65.1445      0.1954
   824.8500     56.9490     65.1445      0.1954
   824.9000     56.6253     65.1578      0.1549
   824.9500     56.6253     65.1578      0.1549
   825.0000     56.6253     65.1578      0.1549
   825.0500     56.6253     65.1578      0.1549
   825.1000     56.6253     65.1578      0.1549
   825.1500     56.6873     65.1639      0.0876
   825.2000     56.6873     65.1639      0.0876
   825.2500     56.6873     65.1639      0.0876
   825.3000     56.6873     65.1639      0.0876
   825.3500     56.6873     65.1639      0.0876
   825.4000     57.0799     65.1689      0.0356
   825.4500     57.0799     65.1689      0.0356
   825.5000     57.0799     65.1689      0.0356
   825.5500     57.0799     65.1689      0.0356
   825.6000     57.0799     65.1689      0.0356
   825.6500     57.3691     65.1739     -0.0005
   825.7000     57.3691     65.1739     -0.0005
   825.7500     57.3691     65.1739     -0.0005
   825.8000     57.3691     65.1739     -0.0005
   825.8500     57.3691     65.1739     -0.0005
   825.9000     57.0937     65.1789     -0.0377
   825.9500     57.0937     65.1789     -0.0377
   826.0000     57.0937     65.1789     -0.0377
   826.0500     57.0937     65.1789     -0.0377
   826.1000     57.0937     65.1789     -0.0377
   826.1500     57.2796     65.1819     -0.0701
   826.2000     57.2796     65.1819     -0.0701
   826.2500     57.2796     65.1819     -0.0701
   826.3000     57.2796     65.1819     -0.0701
   826.3500     57.2796     65.1819     -0.0701
   826.4000     57.9132     65.1752     -0.0778
   826.4500     57.9132     65.1752     -0.0778
   826.5000     57.9132     65.1752     -0.0778
   826.5500     57.9132     65.1752     -0.0778
   826.6000     57.9132     65.1752     -0.0778
   826.6500     58.6846     65.1436     -0.0652
   826.7000     58.6846     65.1436     -0.0652
   826.7500     58.6846     65.1436     -0.0652
   826.8000     58.6846     65.1436     -0.0652
   826.8500     58.6846     65.1436     -0.0652
   826.9000     59.0565     65.0823     -0.0582
   826.9500     59.0565     65.0823     -0.0582
   827.0000     59.0565     65.0823     -0.0582
   827.0500     59.0565     65.0823     -0.0582
   827.1000     59.0565     65.0823     -0.0582
   827.1500     59.4284     65.0237     -0.0631
   827.2000     59.4284     65.0237     -0.0631
   827.2500     59.4284     65.0237     -0.0631
   827.3000     59.4284     65.0237     -0.0631
   827.3500     59.4284     65.0237     -0.0631
   827.4000     59.8691     65.0134     -0.0606
   827.4500     59.8691     65.0134     -0.0606
   827.5000     59.8691     65.0134     -0.0606
   827.5500     59.8691     65.0134     -0.0606
   827.6000     59.8691     65.0134     -0.0606
   827.6500     60.0413     65.0435     -0.0304
   827.7000     60.0413     65.0435     -0.0304
   827.7500     60.0413     65.0435     -0.0304
   827.8000     60.0413     65.0435     -0.0304
   827.8500     60.0413     65.0435     -0.0304
   827.9000     59.8760     65.0625      0.0278
   827.9500     59.8760     65.0625      0.0278
   828.0000     59.8760     65.0625      0.0278
   828.0500     59.8760     65.0625      0.0278
   828.1000     59.8760     65.0625      0.0278
   828.1500     59.5455     65.0557      0.0820
   828.2000     59.5455     65.0557      0.0820
   828.2500     59.5455     65.0557      0.0820
   828.3000     59.5455     65.0557      0.0820
   828.3500     59.5455     65.0557      0.0820
   828.4000     59.0771     65.0540      0.0936
   828.4500     59.0771     65.0540      0.0936
   828.5000     59.0771     65.0540      0.0936
   828.5500     59.0771     65.0540      0.0936
   828.6000     59.0771     65.0540      0.0936
   828.6500     58.6088     65.0827      0.0691
   828.7000     58.6088     65.0827      0.0691
   828.7500     58.6088     65.0827      0.0691
   828.8000     58.6088     65.0827      0.0691
   828.8500     58.6088     65.0827      0.0691
   828.9000     58.2094     65.1380      0.0541
   828.9500     58.2094     65.1380      0.0541
   829.0000     58.2094     65.1380      0.0541
   829.0500     58.2094     65.1380      0.0541
   829.1000     58.2094     65.1380      0.0541
   829.1500     57.5482     65.1877      0.0680
   829.2000     57.5482     65.1877      0.0680
   829.2500     57.5482     65.1877      0.0680
   829.3000     57.5482     65.1877      0.0680
   829.3500     57.5482     65.1877      0.0680
   829.4000     57.0868     65.2005      0.0844
   829.4500     57.0868     65.2005      0.0844
   829.5000     57.0868     65.2005      0.0844
   829.5500     57.0868     65.2005      0.0844
   829.6000     57.0868     65.2005      0.0844
   829.6500     56.9284     65.1817      0.0726
   829.7000     56.9284     65.1817      0.0726
   829.7500     56.9284     65.1817      0.0726
   829.8000     56.9284     65.1817      0.0726
   829.8500     56.9284     65.1817      0.0726
   829.9000     56.7700     65.1706      0.0345
   829.9500     56.7700     65.1706      0.0345
   830.0000     56.7700     65.1706      0.0345
   830.0500     56.7700     65.1706      0.0345
   830.1000     56.7700     65.1706      0.0345
   830.1500     56.3705     65.1917      0.0041
   830.2000     56.3705     65.1917      0.0041
   830.2500     56.3705     65.1917      0.0041
   830.3000     56.3705     65.1917      0.0041
   830.3500     56.3705     65.1917      0.0041
   830.4000     56.1157     65.2227      0.0095
   830.4500     56.1157     65.2227      0.0095
   830.5000     56.1157     65.2227      0.0095
   830.5500     56.1157     65.2227      0.0095
   830.6000     56.1157     65.2227      0.0095
   830.6500     55.9435     65.2278      0.0394
   830.7000     55.9435     65.2278      0.0394
   830.7500     55.9435     65.2278      0.0394
   830.8000     55.9435     65.2278      0.0394
   830.8500     55.9435     65.2278      0.0394
   830.9000     55.4477     65.2069      0.0601
   830.9500     55.4477     65.2069      0.0601
   831.0000     55.4477     65.2069      0.0601
   831.0500     55.4477     65.2069      0.0601
   831.1000     55.4477     65.2069      0.0601
   831.1500     55.4545     65.1959      0.0559
   831.2000     55.4545     65.1959      0.0559
   831.2500     55.4545     65.1959      0.0559
   831.3000     55.4545     65.1959      0.0559
   831.3500     55.4545     65.1959      0.0559
   831.4000     55.4614     65.2196      0.0392
   831.4500     55.4614     65.2196      0.0392
   831.5000     55.4614     65.2196      0.0392
   831.5500     55.4614     65.2196      0.0392
   831.6000     55.4614     65.2196      0.0392
   831.6500     55.1446     65.2605      0.0264
   831.7000     55.1446     65.2605      0.0264
   831.7500     55.1446     65.2605      0.0264
   831.8000     55.1446     65.2605      0.0264
   831.8500     55.1446     65.2605      0.0264
   831.9000     54.7590     65.2907      0.0190
   831.9500     54.7590     65.2907      0.0190
   832.0000     54.7590     65.2907      0.0190
   832.0500     54.7590     65.2907      0.0190
   832.1000     54.7590     65.2907      0.0190
   832.1500     53.9050     65.3035      0.0068
   832.2000     53.9050     65.3035      0.0068
   832.2500     53.9050     65.3035      0.0068
   832.3000     53.9050     65.3035      0.0068
   832.3500     53.9050     65.3035      0.0068
   832.4000     53.2300     65.3012     -0.0237
   832.4500     53.2300     65.3012     -0.0237
   832.5000     53.2300     65.3012     -0.0237
   832.5500     53.2300     65.3012     -0.0237
   832.6000     53.2300     65.3012     -0.0237
   832.6500     52.7204     65.2806     -0.0724
   832.7000     52.7204     65.2806     -0.0724
