~Version Information
VERS.                      2.0: CWLS Log ASCII Standard - VERSION 2.0
WRAP.                       NO: One line per depth step
~Well Information Block
STRT.FT                -2.2500: 
STOP.FT              1141.3000: 
STEP.FT                 0.0500: 
NULL.                -999.2500: 
COMP.                         ANADARKO PETROLEUM CORPORATION: COMPANY
WELL.                         DAVIS 32-31: WELL
FLD.                          BILLABONG: FIELD
LOC.                          SW/NE S31 T47N R72W: LOCATION
CNTY.                         CAMPBELL: COUNTY
SRVC.                         GOODWELL, INC.: SERVICE COMPANY
DATE.          			Thu Sep 22 14-57-45 2011: LOG DATE
UWI.                          4900533095: UNIQUE WELL ID
STAT.                         WYOMING: STATE
~Curve Information Block
DEPT.FT            0 000 00 00: Depth
GR.                           : Gamma Ray
TEMP.degF                     : Downhole Temperature
DTMP.degF                     : Delta Temperature
~Parameter Information Block
~A  Depth        GR         TEMP        DTMP    
# ...
   298.3500     52.5551     62.2606     -0.0709
   298.4000     53.5950     62.2293     -0.0782
   298.4500     53.5950     62.2293     -0.0782
   298.5000     53.5950     62.2293     -0.0782
   298.5500     53.5950     62.2293     -0.0782
   298.6000     53.5950     62.2293     -0.0782
   298.6500     54.3595     62.1830     -0.0956
   298.7000     54.3595     62.1830     -0.0956
   298.7500     54.3595     62.1830     -0.0956
   298.8000     54.3595     62.1830     -0.0956
   298.8500     54.3595     62.1830     -0.0956
   298.9000     55.2066     62.1482     -0.1177
   298.9500     55.2066     62.1482     -0.1177
   299.0000     55.2066     62.1482     -0.1177
   299.0500     55.2066     62.1482     -0.1177
   299.1000     55.2066     62.1482     -0.1177
   299.1500     56.1019     62.1359     -0.1332
   299.2000     56.1019     62.1359     -0.1332
   299.2500     56.1019     62.1359     -0.1332
   299.3000     56.1019     62.1359     -0.1332
   299.3500     56.1019     62.1359     -0.1332
   299.4000     57.0592     62.1207     -0.1221
   299.4500     57.0592     62.1207     -0.1221
   299.5000     57.0592     62.1207     -0.1221
   299.5500     57.0592     62.1207     -0.1221
   299.6000     57.0592     62.1207     -0.1221
   299.6500     58.2989     62.0852     -0.0737
   299.7000     58.2989     62.0852     -0.0737
   299.7500     58.2989     62.0852     -0.0737
   299.8000     58.2989     62.0852     -0.0737
   299.8500     58.2989     62.0852     -0.0737
   299.9000     58.9050     62.0376     -0.0115
   299.9500     58.9050     62.0376     -0.0115
   300.0000     58.9050     62.0376     -0.0115
   300.0500     58.9050     62.0376     -0.0115
   300.1000     58.9050     62.0376     -0.0115
   300.1500     59.0840     61.9942      0.0330
   300.2000     59.0840     61.9942      0.0330
   300.2500     59.0840     61.9942      0.0330
   300.3000     59.0840     61.9942      0.0330
   300.3500     59.0840     61.9942      0.0330
   300.4000     58.9325     61.9851      0.0558
   300.4500     58.9325     61.9851      0.0558
   300.5000     58.9325     61.9851      0.0558
   300.5500     58.9325     61.9851      0.0558
   300.6000     58.9325     61.9851      0.0558
   300.6500     58.5744     62.0356      0.0653
   300.7000     58.5744     62.0356      0.0653
   300.7500     58.5744     62.0356      0.0653
   300.8000     58.5744     62.0356      0.0653
   300.8500     58.5744     62.0356      0.0653
   300.9000     57.5964     62.1252      0.0689
   300.9500     57.5964     62.1252      0.0689
   301.0000     57.5964     62.1252      0.0689
   301.0500     57.5964     62.1252      0.0689
   301.1000     57.5964     62.1252      0.0689
   301.1500     56.4118     62.2019      0.0794
   301.2000     56.4118     62.2019      0.0794
   301.2500     56.4118     62.2019      0.0794
   301.3000     56.4118     62.2019      0.0794
   301.3500     56.4118     62.2019      0.0794
   301.4000     55.1068     62.2324      0.0943
   301.4500     55.1068     62.2324      0.0943
   301.5000     55.1068     62.2324      0.0943
   301.5500     55.1068     62.2324      0.0943
   301.6000     55.1068     62.2324      0.0943
   301.6500     53.9256     62.2158      0.0899
   301.7000     53.9256     62.2158      0.0899
   301.7500     53.9256     62.2158      0.0899
   301.8000     53.9256     62.2158      0.0899
   301.8500     53.9256     62.2158      0.0899
   301.9000     52.5517     62.1754      0.0598
   301.9500     52.5517     62.1754      0.0598
   302.0000     52.5517     62.1754      0.0598
   302.0500     52.5517     62.1754      0.0598
   302.1000     52.5517     62.1754      0.0598
   302.1500     51.1364     62.1530      0.0257
   302.2000     51.1364     62.1530      0.0257
   302.2500     51.1364     62.1530      0.0257
   302.3000     51.1364     62.1530      0.0257
   302.3500     51.1364     62.1530      0.0257
   302.4000     49.8450     62.1737      0.0058
   302.4500     49.8450     62.1737      0.0058
   302.5000     49.8450     62.1737      0.0058
   302.5500     49.8450     62.1737      0.0058
   302.6000     49.8450     62.1737      0.0058
   302.6500     49.2218     62.2154     -0.0013
   302.7000     49.2218     62.2154     -0.0013
   302.7500     49.2218     62.2154     -0.0013
   302.8000     49.2218     62.2154     -0.0013
   302.8500     49.2218     62.2154     -0.0013
   302.9000     48.8326     62.2447     -0.0030
   302.9500     48.8326     62.2447     -0.0030
   303.0000     48.8326     62.2447     -0.0030
   303.0500     48.8326     62.2447     -0.0030
   303.1000     48.8326     62.2447     -0.0030
   303.1500     48.4848     62.2533     -0.0033
   303.2000     48.4848     62.2533     -0.0033
   303.2500     48.4848     62.2533     -0.0033
   303.3000     48.4848     62.2533     -0.0033
   303.3500     48.4848     62.2533     -0.0033
   303.4000     48.2197     62.2439     -0.0033
   303.4500     48.2197     62.2439     -0.0033
   303.5000     48.2197     62.2439     -0.0033
   303.5500     48.2197     62.2439     -0.0033
   303.6000     48.2197     62.2439     -0.0033
   303.6500     48.3058     62.2133     -0.0031
   303.7000     48.3058     62.2133     -0.0031
   303.7500     48.3058     62.2133     -0.0031
   303.8000     48.3058     62.2133     -0.0031
   303.8500     48.3058     62.2133     -0.0031
   303.9000     48.5434     62.1695     -0.0029
   303.9500     48.5434     62.1695     -0.0029
   304.0000     48.5434     62.1695     -0.0029
   304.0500     48.5434     62.1695     -0.0029
   304.1000     48.5434     62.1695     -0.0029
   304.1500     48.5124     62.1464     -0.0016
   304.2000     48.5124     62.1464     -0.0016
   304.2500     48.5124     62.1464     -0.0016
   304.3000     48.5124     62.1464     -0.0016
   304.3500     48.5124     62.1464     -0.0016
   304.4000     48.3574     62.1672      0.0040
   304.4500     48.3574     62.1672      0.0040
   304.5000     48.3574     62.1672      0.0040
   304.5500     48.3574     62.1672      0.0040
   304.6000     48.3574     62.1672      0.0040
   304.6500     48.4022     62.2091      0.0178
   304.7000     48.4022     62.2091      0.0178
   304.7500     48.4022     62.2091      0.0178
   304.8000     48.4022     62.2091      0.0178
   304.8500     48.4022     62.2091      0.0178
   304.9000     48.3850     62.2388      0.0329
   304.9500     48.3850     62.2388      0.0329
   305.0000     48.3850     62.2388      0.0329
   305.0500     48.3850     62.2388      0.0329
   305.1000     48.3850     62.2388      0.0329
   305.1500     48.0992     62.2500      0.0241
   305.2000     48.0992     62.2500      0.0241
   305.2500     48.0992     62.2500      0.0241
   305.3000     48.0992     62.2500      0.0241
   305.3500     48.0992     62.2500      0.0241
   305.4000     47.4001     62.2518     -0.0235
   305.4500     47.4001     62.2518     -0.0235
   305.5000     47.4001     62.2518     -0.0235
   305.5500     47.4001     62.2518     -0.0235
   305.6000     47.4001     62.2518     -0.0235
   305.6500     46.3981     62.2489     -0.0808
   305.7000     46.3981     62.2489     -0.0808
   305.7500     46.3981     62.2489     -0.0808
   305.8000     46.3981     62.2489     -0.0808
   305.8500     46.3981     62.2489     -0.0808
   305.9000     45.6439     62.2352     -0.1006
   305.9500     45.6439     62.2352     -0.1006
   306.0000     45.6439     62.2352     -0.1006
   306.0500     45.6439     62.2352     -0.1006
   306.1000     45.6439     62.2352     -0.1006
   306.1500     44.7245     62.1946     -0.0750
   306.2000     44.7245     62.1946     -0.0750
   306.2500     44.7245     62.1946     -0.0750
   306.3000     44.7245     62.1946     -0.0750
   306.3500     44.7245     62.1946     -0.0750
   306.4000     43.6811     62.1202     -0.0368
   306.4500     43.6811     62.1202     -0.0368
   306.5000     43.6811     62.1202     -0.0368
   306.5500     43.6811     62.1202     -0.0368
   306.6000     43.6811     62.1202     -0.0368
   306.6500     42.3623     62.0475     -0.0119
