~Version Information
VERS.                      2.0: CWLS Log ASCII Standard - VERSION 2.0
WRAP.                       NO: One line per depth step
~Well Information Block
STRT.FT                -2.2500: 
STOP.FT              1141.3000: 
STEP.FT                 0.0500: 
NULL.                -999.2500: 
COMP.                         ANADARKO PETROLEUM CORPORATION: COMPANY
WELL.                         DAVIS 32-31: WELL
FLD.                          BILLABONG: FIELD
LOC.                          SW/NE S31 T47N R72W: LOCATION
CNTY.                         CAMPBELL: COUNTY
SRVC.                         GOODWELL, INC.: SERVICE COMPANY
DATE.          			Thu Sep 22 14-57-45 2011: LOG DATE
UWI.                          4900533095: UNIQUE WELL ID
STAT.                         WYOMING: STATE
~Curve Information Block
DEPT.FT            0 000 00 00: Depth
GR.                           : Gamma Ray
TEMP.degF                     : Downhole Temperature
DTMP.degF                     : Delta Temperature
~Parameter Information Block
~A  Depth        GR         TEMP        DTMP    
# ...
  1125.0000      2.8030     79.7396     -0.0020
  1125.0500      2.8030     79.7396     -0.0020
  1125.1000      2.8030     79.7396     -0.0020
  1125.1500      3.0165     79.7391     -0.0020
  1125.2000      3.0165     79.7391     -0.0020
  1125.2500      3.0165     79.7391     -0.0020
  1125.3000      3.0165     79.7391     -0.0020
  1125.3500      3.0165     79.7391     -0.0020
  1125.4000      3.2713     79.7387     -0.0020
  1125.4500      3.2713     79.7387     -0.0020
  1125.5000      3.2713     79.7387     -0.0020
  1125.5500      3.2713     79.7387     -0.0020
  1125.6000      3.2713     79.7387     -0.0020
  1125.6500      3.4573     79.7383     -0.0020
  1125.7000      3.4573     79.7383     -0.0020
  1125.7500      3.4573     79.7383     -0.0020
  1125.8000      3.4573     79.7383     -0.0020
  1125.8500      3.4573     79.7383     -0.0020
  1125.9000      3.6088     79.7379     -0.0020
  1125.9500      3.6088     79.7379     -0.0020
  1126.0000      3.6088     79.7379     -0.0020
  1126.0500      3.6088     79.7379     -0.0020
  1126.1000      3.6088     79.7379     -0.0020
  1126.1500      3.8017     79.7376     -0.0021
  1126.2000      3.8017     79.7376     -0.0021
  1126.2500      3.8017     79.7376     -0.0021
  1126.3000      3.8017     79.7376     -0.0021
  1126.3500      3.8017     79.7376     -0.0021
  1126.4000      3.9601     79.7371     -0.0021
  1126.4500      3.9601     79.7371     -0.0021
  1126.5000      3.9601     79.7371     -0.0021
  1126.5500      3.9601     79.7371     -0.0021
  1126.6000      3.9601     79.7371     -0.0021
  1126.6500      4.1185     79.7363     -0.0021
  1126.7000      4.1185     79.7363     -0.0021
  1126.7500      4.1185     79.7363     -0.0021
  1126.8000      4.1185     79.7363     -0.0021
  1126.8500      4.1185     79.7363     -0.0021
  1126.9000      4.1391     79.7355     -0.0023
  1126.9500      4.1391     79.7355     -0.0023
  1127.0000      4.1391     79.7355     -0.0023
  1127.0500      4.1391     79.7355     -0.0023
  1127.1000      4.1391     79.7355     -0.0023
  1127.1500      4.1942     79.7349     -0.0026
  1127.2000      4.1942     79.7349     -0.0026
  1127.2500      4.1942     79.7349     -0.0026
  1127.3000      4.1942     79.7349     -0.0026
  1127.3500      4.1942     79.7349     -0.0026
  1127.4000      4.1804     79.7345     -0.0028
  1127.4500      4.1804     79.7345     -0.0028
  1127.5000      4.1804     79.7345     -0.0028
  1127.5500      4.1804     79.7345     -0.0028
  1127.6000      4.1804     79.7345     -0.0028
  1127.6500      4.2424     79.7340     -0.0027
  1127.7000      4.2424     79.7340     -0.0027
  1127.7500      4.2424     79.7340     -0.0027
  1127.8000      4.2424     79.7340     -0.0027
  1127.8500      4.2424     79.7340     -0.0027
  1127.9000      4.3044     79.7333     -0.0024
  1127.9500      4.3044     79.7333     -0.0024
  1128.0000      4.3044     79.7333     -0.0024
  1128.0500      4.3044     79.7333     -0.0024
  1128.1000      4.3044     79.7333     -0.0024
  1128.1500      4.3664     79.7323     -0.0022
  1128.2000      4.3664     79.7323     -0.0022
  1128.2500      4.3664     79.7323     -0.0022
  1128.3000      4.3664     79.7323     -0.0022
  1128.3500      4.3664     79.7323     -0.0022
  1128.4000      4.4628     79.7315     -0.0021
  1128.4500      4.4628     79.7315     -0.0021
  1128.5000      4.4628     79.7315     -0.0021
  1128.5500      4.4628     79.7315     -0.0021
  1128.6000      4.4628     79.7315     -0.0021
  1128.6500      4.5661     79.7310     -0.0022
  1128.7000      4.5661     79.7310     -0.0022
  1128.7500      4.5661     79.7310     -0.0022
  1128.8000      4.5661     79.7310     -0.0022
  1128.8500      4.5661     79.7310     -0.0022
  1128.9000      4.4628     79.7307     -0.0022
  1128.9500      4.4628     79.7307     -0.0022
  1129.0000      4.4628     79.7307     -0.0022
  1129.0500      4.4628     79.7307     -0.0022
  1129.1000      4.4628     79.7307     -0.0022
  1129.1500      4.4766     79.7306     -0.0020
  1129.2000      4.4766     79.7306     -0.0020
  1129.2500      4.4766     79.7306     -0.0020
  1129.3000      4.4766     79.7306     -0.0020
  1129.3500      4.4766     79.7306     -0.0020
  1129.4000      4.4284     79.7302     -0.0019
  1129.4500      4.4284     79.7302     -0.0019
  1129.5000      4.4284     79.7302     -0.0019
  1129.5500      4.4284     79.7302     -0.0019
  1129.6000      4.4284     79.7302     -0.0019
  1129.6500      4.5868     79.7296     -0.0018
  1129.7000      4.5868     79.7296     -0.0018
  1129.7500      4.5868     79.7296     -0.0018
  1129.8000      4.5868     79.7296     -0.0018
  1129.8500      4.5868     79.7296     -0.0018
  1129.9000      4.8140     79.7288     -0.0018
  1129.9500      4.8140     79.7288     -0.0018
  1130.0000      4.8140     79.7288     -0.0018
  1130.0500      4.8140     79.7288     -0.0018
  1130.1000      4.8140     79.7288     -0.0018
  1130.1500      5.1928     79.7282     -0.0019
  1130.2000      5.1928     79.7282     -0.0019
  1130.2500      5.1928     79.7282     -0.0019
  1130.3000      5.1928     79.7282     -0.0019
  1130.3500      5.1928     79.7282     -0.0019
  1130.4000      5.5234     79.7278     -0.0020
  1130.4500      5.5234     79.7278     -0.0020
  1130.5000      5.5234     79.7278     -0.0020
  1130.5500      5.5234     79.7278     -0.0020
  1130.6000      5.5234     79.7278     -0.0020
  1130.6500      5.8540     79.7275     -0.0019
  1130.7000      5.8540     79.7275     -0.0019
  1130.7500      5.8540     79.7275     -0.0019
  1130.8000      5.8540     79.7275     -0.0019
  1130.8500      5.8540     79.7275     -0.0019
  1130.9000      6.4050     79.7272     -0.0017
  1130.9500      6.4050     79.7272     -0.0017
  1131.0000      6.4050     79.7272     -0.0017
  1131.0500      6.4050     79.7272     -0.0017
  1131.1000      6.4050     79.7272     -0.0017
  1131.1500      6.9854     79.7268     -0.0016
  1131.2000      6.9854     79.7268     -0.0016
  1131.2500      6.9854     79.7268     -0.0016
  1131.3000      6.9854     79.7268     -0.0016
  1131.3500      6.9854     79.7268     -0.0016
  1131.4000      7.5767     79.7262     -0.0018
  1131.4500      7.5767     79.7262     -0.0018
  1131.5000      7.5767     79.7262     -0.0018
  1131.5500      7.5767     79.7262     -0.0018
  1131.6000      7.5767     79.7262     -0.0018
  1131.6500      8.3230     79.7258     -0.0020
  1131.7000      8.3230     79.7258     -0.0020
  1131.7500      8.3230     79.7258     -0.0020
  1131.8000      8.3230     79.7258     -0.0020
  1131.8500      8.3230     79.7258     -0.0020
  1131.9000      8.9517     79.7254     -0.0023
  1131.9500      8.9517     79.7254     -0.0023
  1132.0000      8.9517     79.7254     -0.0023
  1132.0500      8.9517     79.7254     -0.0023
  1132.1000      8.9517     79.7254     -0.0023
  1132.1500      9.6327     79.7250     -0.0023
  1132.2000      9.6327     79.7250     -0.0023
  1132.2500      9.6327     79.7250     -0.0023
  1132.3000      9.6327     79.7250     -0.0023
  1132.3500      9.6327     79.7250     -0.0023
  1132.4000     10.0859     79.7243     -0.0022
  1132.4500     10.0859     79.7243     -0.0022
  1132.5000     10.0859     79.7243     -0.0022
  1132.5500     10.0859     79.7243     -0.0022
  1132.6000     10.0859     79.7243     -0.0022
  1132.6500     10.3601     79.7234     -0.0021
  1132.7000     10.3601     79.7234     -0.0021
  1132.7500     10.3601     79.7234     -0.0021
  1132.8000     10.3601     79.7234     -0.0021
  1132.8500     10.3601     79.7234     -0.0021
  1132.9000     10.5034     79.7227     -0.0022
  1132.9500     10.5034     79.7227     -0.0022
  1133.0000     10.5034     79.7227     -0.0022
  1133.0500     10.5034     79.7227     -0.0022
  1133.1000     10.5034     79.7227     -0.0022
  1133.1500     10.6943     79.7221     -0.0022
  1133.2000     10.6943     79.7221     -0.0022
  1133.2500     10.6943     79.7221     -0.0022
  1133.3000     10.6943     79.7221     -0.0022
