~Version Information
VERS.                      2.0: CWLS Log ASCII Standard - VERSION 2.0
WRAP.                       NO: One line per depth step
~Well Information Block
STRT.FT                -2.2500: 
STOP.FT              1141.3000: 
STEP.FT                 0.0500: 
NULL.                -999.2500: 
COMP.                         ANADARKO PETROLEUM CORPORATION: COMPANY
WELL.                         DAVIS 32-31: WELL
FLD.                          BILLABONG: FIELD
LOC.                          SW/NE S31 T47N R72W: LOCATION
CNTY.                         CAMPBELL: COUNTY
SRVC.                         GOODWELL, INC.: SERVICE COMPANY
DATE.          			Thu Sep 22 14-57-45 2011: LOG DATE
UWI.                          4900533095: UNIQUE WELL ID
STAT.                         WYOMING: STATE
~Curve Information Block
DEPT.FT            0 000 00 00: Depth
GR.                           : Gamma Ray
TEMP.degF                     : Downhole Temperature
DTMP.degF                     : Delta Temperature
~Parameter Information Block
~A  Depth        GR         TEMP        DTMP    
# ...
   899.5500     50.7714     66.5205     -0.0729
   899.6000     50.7714     66.5205     -0.0729
   899.6500     51.2775     66.4845     -0.0426
   899.7000     51.2775     66.4845     -0.0426
   899.7500     51.2775     66.4845     -0.0426
   899.8000     51.2775     66.4845     -0.0426
   899.8500     51.2775     66.4845     -0.0426
   899.9000     51.8113     66.4207     -0.0096
   899.9500     51.8113     66.4207     -0.0096
   900.0000     51.8113     66.4207     -0.0096
   900.0500     51.8113     66.4207     -0.0096
   900.1000     51.8113     66.4207     -0.0096
   900.1500     51.9869     66.3675      0.0103
   900.2000     51.9869     66.3675      0.0103
   900.2500     51.9869     66.3675      0.0103
   900.3000     51.9869     66.3675      0.0103
   900.3500     51.9869     66.3675      0.0103
   900.4000     52.0455     66.3753      0.0235
   900.4500     52.0455     66.3753      0.0235
   900.5000     52.0455     66.3753      0.0235
   900.5500     52.0455     66.3753      0.0235
   900.6000     52.0455     66.3753      0.0235
   900.6500     52.3244     66.4403      0.0448
   900.7000     52.3244     66.4403      0.0448
   900.7500     52.3244     66.4403      0.0448
   900.8000     52.3244     66.4403      0.0448
   900.8500     52.3244     66.4403      0.0448
   900.9000     52.5069     66.5102      0.0788
   900.9500     52.5069     66.5102      0.0788
   901.0000     52.5069     66.5102      0.0788
   901.0500     52.5069     66.5102      0.0788
   901.1000     52.5069     66.5102      0.0788
   901.1500     53.0200     66.5510      0.1073
   901.2000     53.0200     66.5510      0.1073
   901.2500     53.0200     66.5510      0.1073
   901.3000     53.0200     66.5510      0.1073
   901.3500     53.0200     66.5510      0.1073
   901.4000     53.4642     66.5674      0.1054
   901.4500     53.4642     66.5674      0.1054
   901.5000     53.4642     66.5674      0.1054
   901.5500     53.4642     66.5674      0.1054
   901.6000     53.4642     66.5674      0.1054
   901.6500     53.7018     66.5741      0.0747
   901.7000     53.7018     66.5741      0.0747
   901.7500     53.7018     66.5741      0.0747
   901.8000     53.7018     66.5741      0.0747
   901.8500     53.7018     66.5741      0.0747
   901.9000     53.7466     66.5783      0.0405
   901.9500     53.7466     66.5783      0.0405
   902.0000     53.7466     66.5783      0.0405
   902.0500     53.7466     66.5783      0.0405
   902.1000     53.7466     66.5783      0.0405
   902.1500     53.8946     66.5821      0.0164
   902.2000     53.8946     66.5821      0.0164
   902.2500     53.8946     66.5821      0.0164
   902.3000     53.8946     66.5821      0.0164
   902.3500     53.8946     66.5821      0.0164
   902.4000     54.5386     66.5860     -0.0048
   902.4500     54.5386     66.5860     -0.0048
   902.5000     54.5386     66.5860     -0.0048
   902.5500     54.5386     66.5860     -0.0048
   902.6000     54.5386     66.5860     -0.0048
   902.6500     55.1687     66.5897     -0.0274
   902.7000     55.1687     66.5897     -0.0274
   902.7500     55.1687     66.5897     -0.0274
   902.8000     55.1687     66.5897     -0.0274
   902.8500     55.1687     66.5897     -0.0274
   902.9000     56.0572     66.5913     -0.0384
   902.9500     56.0572     66.5913     -0.0384
   903.0000     56.0572     66.5913     -0.0384
   903.0500     56.0572     66.5913     -0.0384
   903.1000     56.0572     66.5913     -0.0384
   903.1500     56.6839     66.5839     -0.0273
   903.2000     56.6839     66.5839     -0.0273
   903.2500     56.6839     66.5839     -0.0273
   903.3000     56.6839     66.5839     -0.0273
   903.3500     56.6839     66.5839     -0.0273
   903.4000     57.1453     66.5579     -0.0058
   903.4500     57.1453     66.5579     -0.0058
   903.5000     57.1453     66.5579     -0.0058
   903.5500     57.1453     66.5579     -0.0058
   903.6000     57.1453     66.5579     -0.0058
   903.6500     57.4690     66.5193      0.0091
   903.7000     57.4690     66.5193      0.0091
   903.7500     57.4690     66.5193      0.0091
   903.8000     57.4690     66.5193      0.0091
   903.8500     57.4690     66.5193      0.0091
   903.9000     57.4415     66.5016      0.0149
   903.9500     57.4415     66.5016      0.0149
   904.0000     57.4415     66.5016      0.0149
   904.0500     57.4415     66.5016      0.0149
   904.1000     57.4415     66.5016      0.0149
   904.1500     57.5689     66.5276      0.0170
   904.2000     57.5689     66.5276      0.0170
   904.2500     57.5689     66.5276      0.0170
   904.3000     57.5689     66.5276      0.0170
   904.3500     57.5689     66.5276      0.0170
   904.4000     57.6136     66.5743      0.0192
   904.4500     57.6136     66.5743      0.0192
   904.5000     57.6136     66.5743      0.0192
   904.5500     57.6136     66.5743      0.0192
   904.6000     57.6136     66.5743      0.0192
   904.6500     57.4242     66.6079      0.0212
   904.7000     57.4242     66.6079      0.0212
   904.7500     57.4242     66.6079      0.0212
   904.8000     57.4242     66.6079      0.0212
   904.8500     57.4242     66.6079      0.0212
   904.9000     57.0455     66.6211      0.0162
   904.9500     57.0455     66.6211      0.0162
   905.0000     57.0455     66.6211      0.0162
   905.0500     57.0455     66.6211      0.0162
   905.1000     57.0455     66.6211      0.0162
   905.1500     56.4601     66.6178     -0.0059
   905.2000     56.4601     66.6178     -0.0059
   905.2500     56.4601     66.6178     -0.0059
   905.3000     56.4601     66.6178     -0.0059
   905.3500     56.4601     66.6178     -0.0059
   905.4000     56.0813     66.5963     -0.0464
   905.4500     56.0813     66.5963     -0.0464
   905.5000     56.0813     66.5963     -0.0464
   905.5500     56.0813     66.5963     -0.0464
   905.6000     56.0813     66.5963     -0.0464
   905.6500     55.4132     66.5616     -0.0859
   905.7000     55.4132     66.5616     -0.0859
   905.7500     55.4132     66.5616     -0.0859
   905.8000     55.4132     66.5616     -0.0859
   905.8500     55.4132     66.5616     -0.0859
   905.9000     54.8140     66.5339     -0.0963
   905.9500     54.8140     66.5339     -0.0963
   906.0000     54.8140     66.5339     -0.0963
   906.0500     54.8140     66.5339     -0.0963
   906.1000     54.8140     66.5339     -0.0963
   906.1500     54.0909     66.5159     -0.0766
   906.2000     54.0909     66.5159     -0.0766
   906.2500     54.0909     66.5159     -0.0766
   906.3000     54.0909     66.5159     -0.0766
   906.3500     54.0909     66.5159     -0.0766
   906.4000     53.2094     66.4815     -0.0515
   906.4500     53.2094     66.4815     -0.0515
   906.5000     53.2094     66.4815     -0.0515
   906.5500     53.2094     66.4815     -0.0515
   906.6000     53.2094     66.4815     -0.0515
   906.6500     52.2865     66.4361     -0.0343
   906.7000     52.2865     66.4361     -0.0343
   906.7500     52.2865     66.4361     -0.0343
   906.8000     52.2865     66.4361     -0.0343
   906.8500     52.2865     66.4361     -0.0343
   906.9000     51.0882     66.4285     -0.0205
   906.9500     51.0882     66.4285     -0.0205
   907.0000     51.0882     66.4285     -0.0205
   907.0500     51.0882     66.4285     -0.0205
   907.1000     51.0882     66.4285     -0.0205
   907.1500     50.2204     66.4646      0.0014
   907.2000     50.2204     66.4646      0.0014
   907.2500     50.2204     66.4646      0.0014
   907.3000     50.2204     66.4646      0.0014
   907.3500     50.2204     66.4646      0.0014
   907.4000     49.8485     66.4932      0.0399
   907.4500     49.8485     66.4932      0.0399
   907.5000     49.8485     66.4932      0.0399
   907.5500     49.8485     66.4932      0.0399
   907.6000     49.8485     66.4932      0.0399
   907.6500     49.7865     66.4929      0.0699
   907.7000     49.7865     66.4929      0.0699
   907.7500     49.7865     66.4929      0.0699
   907.8000     49.7865     66.4929      0.0699
   907.8500     49.7865     66.4929      0.0699
