~Version Information
VERS.                      2.0: CWLS Log ASCII Standard - VERSION 2.0
WRAP.                       NO: One line per depth step
~Well Information Block
STRT.FT                -2.2500: 
STOP.FT              1141.3000: 
STEP.FT                 0.0500: 
NULL.                -999.2500: 
COMP.                         ANADARKO PETROLEUM CORPORATION: COMPANY
WELL.                         DAVIS 32-31: WELL
FLD.                          BILLABONG: FIELD
LOC.                          SW/NE S31 T47N R72W: LOCATION
CNTY.                         CAMPBELL: COUNTY
SRVC.                         GOODWELL, INC.: SERVICE COMPANY
DATE.          			Thu Sep 22 14-57-45 2011: LOG DATE
UWI.                          4900533095: UNIQUE WELL ID
STAT.                         WYOMING: STATE
~Curve Information Block
DEPT.FT            0 000 00 00: Depth
GR.                           : Gamma Ray
TEMP.degF                     : Downhole Temperature
DTMP.degF                     : Delta Temperature
~Parameter Information Block
~A  Depth        GR         TEMP        DTMP    
    -2.2500      0.7568   -999.2500   -999.2500
    -2.2000      0.7568   -999.2500   -999.2500
    -2.1500      0.7568   -999.2500   -999.2500
    -2.1000      1.7587   -999.2500   -999.2500
    -2.0500      1.7587   -999.2500   -999.2500
    -2.0000      1.7587   -999.2500   -999.2500
    -1.9500      1.7587   -999.2500   -999.2500
    -1.9000      1.7587   -999.2500   -999.2500
    -1.8500      2.9671   -999.2500   -999.2500
    -1.8000      2.9671   -999.2500   -999.2500
    -1.7500      2.9671   -999.2500   -999.2500
    -1.7000      2.9671   -999.2500   -999.2500
    -1.6500      2.9671   -999.2500   -999.2500
    -1.6000      4.5475   -999.2500   -999.2500
    -1.5500      4.5475   -999.2500   -999.2500
    -1.5000      4.5475   -999.2500   -999.2500
    -1.4500      4.5475   -999.2500   -999.2500
    -1.4000      4.5475   -999.2500   -999.2500
    -1.3500      6.5411   -999.2500   -999.2500
    -1.3000      6.5411   -999.2500   -999.2500
    -1.2500      6.5411   -999.2500   -999.2500
    -1.2000      6.5411   -999.2500   -999.2500
    -1.1500      6.5411   -999.2500   -999.2500
    -1.1000      8.9020   -999.2500   -999.2500
    -1.0500      8.9020   -999.2500   -999.2500
    -1.0000      8.9020   -999.2500   -999.2500
    -0.9500      8.9020   -999.2500   -999.2500
    -0.9000      8.9020   -999.2500   -999.2500
    -0.8500     11.5383   -999.2500   -999.2500
    -0.8000     11.5383   -999.2500   -999.2500
    -0.7500     11.5383   -999.2500   -999.2500
    -0.7000     11.5383   -999.2500   -999.2500
    -0.6500     11.5383   -999.2500   -999.2500
    -0.6000     14.3813   -999.2500   -999.2500
    -0.5500     14.3813   -999.2500   -999.2500
    -0.5000     14.3813   -999.2500   -999.2500
    -0.4500     14.3813   -999.2500   -999.2500
    -0.4000     14.3813   -999.2500   -999.2500
    -0.3500     21.0516   -999.2500   -999.2500
    -0.3000     21.0516   -999.2500   -999.2500
    -0.2500     21.0516   -999.2500   -999.2500
    -0.2000     21.0516   -999.2500   -999.2500
    -0.1500     21.0516   -999.2500   -999.2500
    -0.1000     21.0516   -999.2500   -999.2500
    -0.0500     21.0516   -999.2500   -999.2500
     0.0000     21.0516   -999.2500   -999.2500
     0.0500     21.0516   -999.2500   -999.2500
     0.1000     21.0516   -999.2500   -999.2500
     0.1500     24.5070   -999.2500   -999.2500
     0.2000     24.5070   -999.2500   -999.2500
     0.2500     24.5070   -999.2500   -999.2500
     0.3000     24.5070   -999.2500   -999.2500
     0.3500     24.5070   -999.2500   -999.2500
     0.4000     27.9386   -999.2500   -999.2500
     0.4500     27.9386   -999.2500   -999.2500
     0.5000     27.9386   -999.2500   -999.2500
     0.5500     27.9386   -999.2500   -999.2500
     0.6000     27.9386   -999.2500   -999.2500
     0.6500     30.7292   -999.2500   -999.2500
     0.7000     30.7292   -999.2500   -999.2500
     0.7500     30.7292   -999.2500   -999.2500
     0.8000     30.7292   -999.2500   -999.2500
     0.8500     30.7292   -999.2500   -999.2500
     0.9000     33.5973   -999.2500   -999.2500
     0.9500     33.5973   -999.2500   -999.2500
     1.0000     33.5973   -999.2500   -999.2500
     1.0500     33.5973   -999.2500   -999.2500
     1.1000     33.5973   -999.2500   -999.2500
     1.1500     36.3644   -999.2500   -999.2500
     1.2000     36.3644   -999.2500   -999.2500
     1.2500     36.3644   -999.2500   -999.2500
     1.3000     36.3644   -999.2500   -999.2500
     1.3500     36.3644   -999.2500   -999.2500
     1.4000     38.7183   -999.2500   -999.2500
     1.4500     38.7183   -999.2500   -999.2500
     1.5000     38.7183   -999.2500   -999.2500
     1.5500     38.7183   -999.2500   -999.2500
     1.6000     38.7183   -999.2500   -999.2500
     1.6500     40.7766   -999.2500   -999.2500
     1.7000     40.7766   -999.2500   -999.2500
     1.7500     40.7766   -999.2500   -999.2500
     1.8000     40.7766   -999.2500   -999.2500
     1.8500     40.7766   -999.2500   -999.2500
     1.9000     42.6713   -999.2500   -999.2500
     1.9500     42.6713   -999.2500   -999.2500
     2.0000     42.6713   -999.2500   -999.2500
     2.0500     42.6713   -999.2500   -999.2500
     2.1000     42.6713   -999.2500   -999.2500
     2.1500     44.4775   -999.2500   -999.2500
     2.2000     44.4775   -999.2500   -999.2500
     2.2500     44.4775   -999.2500   -999.2500
     2.3000     44.4775   -999.2500   -999.2500
     2.3500     44.4775   -999.2500   -999.2500
     2.4000     46.2291   -999.2500   -999.2500
     2.4500     46.2291   -999.2500   -999.2500
     2.5000     46.2291   -999.2500   -999.2500
     2.5500     46.2291   -999.2500   -999.2500
     2.6000     46.2291   -999.2500   -999.2500
     2.6500     47.5307   -999.2500   -999.2500
     2.7000     47.5307   -999.2500   -999.2500
     2.7500     47.5307   -999.2500   -999.2500
     2.8000     47.5307   -999.2500   -999.2500
     2.8500     47.5307   -999.2500   -999.2500
     2.9000     48.5848   -999.2500   -999.2500
     2.9500     48.5848   -999.2500   -999.2500
     3.0000     48.5848   -999.2500   -999.2500
     3.0500     48.5848   -999.2500   -999.2500
     3.1000     48.5848   -999.2500   -999.2500
     3.1500     49.5218      0.0000   -999.2500
     3.2000     49.5218      0.0000   -999.2500
     3.2500     49.5218      0.0000   -999.2500
     3.3000     49.5218      0.0000   -999.2500
     3.3500     49.5218      0.0000   -999.2500
     3.4000     50.7183      0.0065   -999.2500
     3.4500     50.7183      0.0065   -999.2500
     3.5000     50.7183      0.0065   -999.2500
     3.5500     50.7183      0.0065   -999.2500
     3.6000     50.7183      0.0065   -999.2500
     3.6500     51.4500      0.0813   -999.2500
     3.7000     51.4500      0.0813   -999.2500
     3.7500     51.4500      0.0813   -999.2500
     3.8000     51.4500      0.0813   -999.2500
     3.8500     51.4500      0.0813   -999.2500
     3.9000     51.8103      0.6342   -999.2500
     3.9500     51.8103      0.6342   -999.2500
     4.0000     51.8103      0.6342   -999.2500
     4.0500     51.8103      0.6342   -999.2500
     4.1000     51.8103      0.6342   -999.2500
     4.1500     52.0526      3.2531     30.7330
     4.2000     52.0526      3.2531     30.7330
     4.2500     52.0526      3.2531     30.7330
     4.3000     52.0526      3.2531     30.7330
     4.3500     52.0526      3.2531     30.7330
     4.4000     52.2268     11.2066     34.6882
     4.4500     52.2268     11.2066     34.6882
     4.5000     52.2268     11.2066     34.6882
     4.5500     52.2268     11.2066     34.6882
     4.6000     52.2268     11.2066     34.6882
     4.6500     52.2559     26.6912     35.9476
     4.7000     52.2559     26.6912     35.9476
     4.7500     52.2559     26.6912     35.9476
     4.8000     52.2559     26.6912     35.9476
     4.8500     52.2559     26.6912     35.9476
     4.9000     52.1079     46.0140     35.9361
     4.9500     52.1079     46.0140     35.9361
     5.0000     52.1079     46.0140     35.9361
     5.0500     52.1079     46.0140     35.9361
     5.1000     52.1079     46.0140     35.9361
     5.1500     51.5094     61.4660     34.6516
     5.2000     51.5094     61.4660     34.6516
     5.2500     51.5094     61.4660     34.6516
     5.3000     51.5094     61.4660     34.6516
     5.3500     51.5094     61.4660     34.6516
     5.4000     51.2343     69.3828     30.6695
     5.4500     51.2343     69.3828     30.6695
     5.5000     51.2343     69.3828     30.6695
     5.5500     51.2343     69.3828     30.6695
     5.6000     51.2343     69.3828     30.6695
     5.6500     51.2913     71.9766     22.9240
     5.7000     51.2913     71.9766     22.9240
     5.7500     51.2913     71.9766     22.9240
     5.8000     51.2913     71.9766     22.9240
     5.8500     51.2913     71.9766     22.9240
     5.9000     50.8096     72.5063     13.2636
     5.9500     50.8096     72.5063     13.2636
     6.0000     50.8096     72.5063     13.2636
     6.0500     50.8096     72.5063     13.2636
