~Version Information
VERS.                      2.0: CWLS Log ASCII Standard - VERSION 2.0
WRAP.                       NO: One line per depth step
~Well Information Block
STRT.FT                -2.2500: 
STOP.FT              1141.3000: 
STEP.FT                 0.0500: 
NULL.                -999.2500: 
COMP.                         ANADARKO PETROLEUM CORPORATION: COMPANY
WELL.                         DAVIS 32-31: WELL
FLD.                          BILLABONG: FIELD
LOC.                          SW/NE S31 T47N R72W: LOCATION
CNTY.                         CAMPBELL: COUNTY
SRVC.                         GOODWELL, INC.: SERVICE COMPANY
DATE.          			Thu Sep 22 14-57-45 2011: LOG DATE
UWI.                          4900533095: UNIQUE WELL ID
STAT.                         WYOMING: STATE
~Curve Information Block
DEPT.FT            0 000 00 00: Depth
GR.                           : Gamma Ray
TEMP.degF                     : Downhole Temperature
DTMP.degF                     : Delta Temperature
~Parameter Information Block
~A  Depth        GR         TEMP        DTMP    
# ...
   749.2500     49.6488     63.5619     -0.0173
   749.3000     49.6488     63.5619     -0.0173
   749.3500     49.6488     63.5619     -0.0173
   749.4000     50.0964     63.5437     -0.0149
   749.4500     50.0964     63.5437     -0.0149
   749.5000     50.0964     63.5437     -0.0149
   749.5500     50.0964     63.5437     -0.0149
   749.6000     50.0964     63.5437     -0.0149
   749.6500     50.9229     63.5666     -0.0256
   749.7000     50.9229     63.5666     -0.0256
   749.7500     50.9229     63.5666     -0.0256
   749.8000     50.9229     63.5666     -0.0256
   749.8500     50.9229     63.5666     -0.0256
   749.9000     51.6667     63.6184     -0.0275
   749.9500     51.6667     63.6184     -0.0275
   750.0000     51.6667     63.6184     -0.0275
   750.0500     51.6667     63.6184     -0.0275
   750.1000     51.6667     63.6184     -0.0275
   750.1500     52.4656     63.6630     -0.0030
   750.2000     52.4656     63.6630     -0.0030
   750.2500     52.4656     63.6630     -0.0030
   750.3000     52.4656     63.6630     -0.0030
   750.3500     52.4656     63.6630     -0.0030
   750.4000     53.5124     63.6619      0.0365
   750.4500     53.5124     63.6619      0.0365
   750.5000     53.5124     63.6619      0.0365
   750.5500     53.5124     63.6619      0.0365
   750.6000     53.5124     63.6619      0.0365
   750.6500     55.1653     63.6113      0.0605
   750.7000     55.1653     63.6113      0.0605
   750.7500     55.1653     63.6113      0.0605
   750.8000     55.1653     63.6113      0.0605
   750.8500     55.1653     63.6113      0.0605
   750.9000     56.7906     63.5562      0.0562
   750.9500     56.7906     63.5562      0.0562
   751.0000     56.7906     63.5562      0.0562
   751.0500     56.7906     63.5562      0.0562
   751.1000     56.7906     63.5562      0.0562
   751.1500     58.3333     63.5560      0.0423
   751.2000     58.3333     63.5560      0.0423
   751.2500     58.3333     63.5560      0.0423
   751.3000     58.3333     63.5560      0.0423
   751.3500     58.3333     63.5560      0.0423
   751.4000     59.3664     63.6166      0.0457
   751.4500     59.3664     63.6166      0.0457
   751.5000     59.3664     63.6166      0.0457
   751.5500     59.3664     63.6166      0.0457
   751.6000     59.3664     63.6166      0.0457
   751.6500     59.9449     63.6877      0.0725
   751.7000     59.9449     63.6877      0.0725
   751.7500     59.9449     63.6877      0.0725
   751.8000     59.9449     63.6877      0.0725
   751.8500     59.9449     63.6877      0.0725
   751.9000     60.4408     63.7307      0.1012
   751.9500     60.4408     63.7307      0.1012
   752.0000     60.4408     63.7307      0.1012
   752.0500     60.4408     63.7307      0.1012
   752.1000     60.4408     63.7307      0.1012
   752.1500     61.2741     63.7476      0.1025
   752.2000     61.2741     63.7476      0.1025
   752.2500     61.2741     63.7476      0.1025
   752.3000     61.2741     63.7476      0.1025
   752.3500     61.2741     63.7476      0.1025
   752.4000     61.4463     63.7534      0.0735
   752.4500     61.4463     63.7534      0.0735
   752.5000     61.4463     63.7534      0.0735
   752.5500     61.4463     63.7534      0.0735
   752.6000     61.4463     63.7534      0.0735
   752.6500     61.3705     63.7562      0.0392
   752.7000     61.3705     63.7562      0.0392
   752.7500     61.3705     63.7562      0.0392
   752.8000     61.3705     63.7562      0.0392
   752.8500     61.3705     63.7562      0.0392
   752.9000     60.6474     63.7586      0.0176
   752.9500     60.6474     63.7586      0.0176
   753.0000     60.6474     63.7586      0.0176
   753.0500     60.6474     63.7586      0.0176
   753.1000     60.6474     63.7586      0.0176
   753.1500     59.3871     63.7611      0.0035
   753.2000     59.3871     63.7611      0.0035
   753.2500     59.3871     63.7611      0.0035
   753.3000     59.3871     63.7611      0.0035
   753.3500     59.3871     63.7611      0.0035
   753.4000     57.4105     63.7636     -0.0189
   753.4500     57.4105     63.7636     -0.0189
   753.5000     57.4105     63.7636     -0.0189
   753.5500     57.4105     63.7636     -0.0189
   753.6000     57.4105     63.7636     -0.0189
   753.6500     54.9518     63.7660     -0.0555
   753.7000     54.9518     63.7660     -0.0555
   753.7500     54.9518     63.7660     -0.0555
   753.8000     54.9518     63.7660     -0.0555
   753.8500     54.9518     63.7660     -0.0555
   753.9000     52.1625     63.7660     -0.0877
   753.9500     52.1625     63.7660     -0.0877
   754.0000     52.1625     63.7660     -0.0877
   754.0500     52.1625     63.7660     -0.0877
   754.1000     52.1625     63.7660     -0.0877
   754.1500     49.1667     63.7547     -0.0878
   754.2000     49.1667     63.7547     -0.0878
   754.2500     49.1667     63.7547     -0.0878
   754.3000     49.1667     63.7547     -0.0878
   754.3500     49.1667     63.7547     -0.0878
   754.4000     46.2741     63.7157     -0.0554
   754.4500     46.2741     63.7157     -0.0554
   754.5000     46.2741     63.7157     -0.0554
   754.5500     46.2741     63.7157     -0.0554
   754.6000     46.2741     63.7157     -0.0554
   754.6500     42.8030     63.6453     -0.0187
   754.7000     42.8030     63.6453     -0.0187
   754.7500     42.8030     63.6453     -0.0187
   754.8000     42.8030     63.6453     -0.0187
   754.8500     42.8030     63.6453     -0.0187
   754.9000     38.9050     63.5831      0.0037
   754.9500     38.9050     63.5831      0.0037
   755.0000     38.9050     63.5831      0.0037
   755.0500     38.9050     63.5831      0.0037
   755.1000     38.9050     63.5831      0.0037
   755.1500     34.9656     63.5855      0.0178
   755.2000     34.9656     63.5855      0.0178
   755.2500     34.9656     63.5855      0.0178
   755.3000     34.9656     63.5855      0.0178
   755.3500     34.9656     63.5855      0.0178
   755.4000     31.0262     63.6528      0.0401
   755.4500     31.0262     63.6528      0.0401
   755.5000     31.0262     63.6528      0.0401
   755.5500     31.0262     63.6528      0.0401
   755.6000     31.0262     63.6528      0.0401
   755.6500     27.3967     63.7286      0.0758
   755.7000     27.3967     63.7286      0.0758
   755.7500     27.3967     63.7286      0.0758
   755.8000     27.3967     63.7286      0.0758
   755.8500     27.3967     63.7286      0.0758
   755.9000     24.0565     63.7733      0.1036
   755.9500     24.0565     63.7733      0.1036
   756.0000     24.0565     63.7733      0.1036
   756.0500     24.0565     63.7733      0.1036
   756.1000     24.0565     63.7733      0.1036
   756.1500     21.1708     63.7903      0.0909
   756.2000     21.1708     63.7903      0.0909
   756.2500     21.1708     63.7903      0.0909
   756.3000     21.1708     63.7903      0.0909
   756.3500     21.1708     63.7903      0.0909
   756.4000     18.7948     63.7958      0.0387
   756.4500     18.7948     63.7958      0.0387
   756.5000     18.7948     63.7958      0.0387
   756.5500     18.7948     63.7958      0.0387
   756.6000     18.7948     63.7958      0.0387
   756.6500     16.8733     63.7970     -0.0167
   756.7000     16.8733     63.7970     -0.0167
   756.7500     16.8733     63.7970     -0.0167
   756.8000     16.8733     63.7970     -0.0167
   756.8500     16.8733     63.7970     -0.0167
   756.9000     15.3099     63.7903     -0.0539
   756.9500     15.3099     63.7903     -0.0539
   757.0000     15.3099     63.7903     -0.0539
   757.0500     15.3099     63.7903     -0.0539
   757.1000     15.3099     63.7903     -0.0539
   757.1500     13.9118     63.7674     -0.0793
   757.2000     13.9118     63.7674     -0.0793
   757.2500     13.9118     63.7674     -0.0793
   757.3000     13.9118     63.7674     -0.0793
   757.3500     13.9118     63.7674     -0.0793
   757.4000     13.1336     63.7302     -0.0877
   757.4500     13.1336     63.7302     -0.0877
   757.5000     13.1336     63.7302     -0.0877
   757.5500     13.1336     63.7302     -0.0877
