~Version Information
VERS.                      2.0: CWLS Log ASCII Standard - VERSION 2.0
WRAP.                       NO: One line per depth step
~Well Information Block
STRT.FT                -2.2500: 
STOP.FT              1141.3000: 
STEP.FT                 0.0500: 
NULL.                -999.2500: 
COMP.                         ANADARKO PETROLEUM CORPORATION: COMPANY
WELL.                         DAVIS 32-31: WELL
FLD.                          BILLABONG: FIELD
LOC.                          SW/NE S31 T47N R72W: LOCATION
CNTY.                         CAMPBELL: COUNTY
SRVC.                         GOODWELL, INC.: SERVICE COMPANY
DATE.          			Thu Sep 22 14-57-45 2011: LOG DATE
UWI.                          4900533095: UNIQUE WELL ID
STAT.                         WYOMING: STATE
~Curve Information Block
DEPT.FT            0 000 00 00: Depth
GR.                           : Gamma Ray
TEMP.degF                     : Downhole Temperature
DTMP.degF                     : Delta Temperature
~Parameter Information Block
~A  Depth        GR         TEMP        DTMP    
# ...
   598.9500     38.5537     62.4570      0.0017
   599.0000     38.5537     62.4570      0.0017
   599.0500     38.5537     62.4570      0.0017
   599.1000     38.5537     62.4570      0.0017
   599.1500     38.7052     62.4576     -0.0041
   599.2000     38.7052     62.4576     -0.0041
   599.2500     38.7052     62.4576     -0.0041
   599.3000     38.7052     62.4576     -0.0041
   599.3500     38.7052     62.4576     -0.0041
   599.4000     38.5468     62.4583     -0.0193
   599.4500     38.5468     62.4583     -0.0193
   599.5000     38.5468     62.4583     -0.0193
   599.5500     38.5468     62.4583     -0.0193
   599.6000     38.5468     62.4583     -0.0193
   599.6500     38.3471     62.4587     -0.0407
   599.7000     38.3471     62.4587     -0.0407
   599.7500     38.3471     62.4587     -0.0407
   599.8000     38.3471     62.4587     -0.0407
   599.8500     38.3471     62.4587     -0.0407
   599.9000     37.9821     62.4569     -0.0514
   599.9500     37.9821     62.4569     -0.0514
   600.0000     37.9821     62.4569     -0.0514
   600.0500     37.9821     62.4569     -0.0514
   600.1000     37.9821     62.4569     -0.0514
   600.1500     38.0096     62.4461     -0.0401
   600.2000     38.0096     62.4461     -0.0401
   600.2500     38.0096     62.4461     -0.0401
   600.3000     38.0096     62.4461     -0.0401
   600.3500     38.0096     62.4461     -0.0401
   600.4000     38.0096     62.4168     -0.0184
   600.4500     38.0096     62.4168     -0.0184
   600.5000     38.0096     62.4168     -0.0184
   600.5500     38.0096     62.4168     -0.0184
   600.6000     38.0096     62.4168     -0.0184
   600.6500     38.2576     62.3749     -0.0029
   600.7000     38.2576     62.3749     -0.0029
   600.7500     38.2576     62.3749     -0.0029
   600.8000     38.2576     62.3749     -0.0029
   600.8500     38.2576     62.3749     -0.0029
   600.9000     38.0923     62.3541      0.0042
   600.9500     38.0923     62.3541      0.0042
   601.0000     38.0923     62.3541      0.0042
   601.0500     38.0923     62.3541      0.0042
   601.1000     38.0923     62.3541      0.0042
   601.1500     38.3747     62.3774      0.0111
   601.2000     38.3747     62.3774      0.0111
   601.2500     38.3747     62.3774      0.0111
   601.3000     38.3747     62.3774      0.0111
   601.3500     38.3747     62.3774      0.0111
   601.4000     38.6674     62.4215      0.0262
   601.4500     38.6674     62.4215      0.0262
   601.5000     38.6674     62.4215      0.0262
   601.5500     38.6674     62.4215      0.0262
   601.6000     38.6674     62.4215      0.0262
   601.6500     38.7534     62.4529      0.0475
   601.7000     38.7534     62.4529      0.0475
   601.7500     38.7534     62.4529      0.0475
   601.8000     38.7534     62.4529      0.0475
   601.8500     38.7534     62.4529      0.0475
   601.9000     39.0806     62.4653      0.0582
   601.9500     39.0806     62.4653      0.0582
   602.0000     39.0806     62.4653      0.0582
   602.0500     39.0806     62.4653      0.0582
   602.1000     39.0806     62.4653      0.0582
   602.1500     39.7383     62.4684      0.0470
   602.2000     39.7383     62.4684      0.0470
   602.2500     39.7383     62.4684      0.0470
   602.3000     39.7383     62.4684      0.0470
   602.3500     39.7383     62.4684      0.0470
   602.4000     40.3960     62.4693      0.0255
   602.4500     40.3960     62.4693      0.0255
   602.5000     40.3960     62.4693      0.0255
   602.5500     40.3960     62.4693      0.0255
   602.6000     40.3960     62.4693      0.0255
   602.6500     40.6818     62.4698      0.0105
   602.7000     40.6818     62.4698      0.0105
   602.7500     40.6818     62.4698      0.0105
   602.8000     40.6818     62.4698      0.0105
   602.8500     40.6818     62.4698      0.0105
   602.9000     40.9676     62.4705      0.0050
   602.9500     40.9676     62.4705      0.0050
   603.0000     40.9676     62.4705      0.0050
   603.0500     40.9676     62.4705      0.0050
   603.1000     40.9676     62.4705      0.0050
   603.1500     41.4187     62.4714      0.0038
   603.2000     41.4187     62.4714      0.0038
   603.2500     41.4187     62.4714      0.0038
   603.3000     41.4187     62.4714      0.0038
   603.3500     41.4187     62.4714      0.0038
   603.4000     41.8698     62.4726      0.0037
   603.4500     41.8698     62.4726      0.0037
   603.5000     41.8698     62.4726      0.0037
   603.5500     41.8698     62.4726      0.0037
   603.6000     41.8698     62.4726      0.0037
   603.6500     42.7548     62.4740      0.0039
   603.7000     42.7548     62.4740      0.0039
   603.7500     42.7548     62.4740      0.0039
   603.8000     42.7548     62.4740      0.0039
   603.8500     42.7548     62.4740      0.0039
   603.9000     43.2404     62.4752      0.0041
   603.9500     43.2404     62.4752      0.0041
   604.0000     43.2404     62.4752      0.0041
   604.0500     43.2404     62.4752      0.0041
   604.1000     43.2404     62.4752      0.0041
   604.1500     43.8705     62.4760      0.0041
   604.2000     43.8705     62.4760      0.0041
   604.2500     43.8705     62.4760      0.0041
   604.3000     43.8705     62.4760      0.0041
   604.3500     43.8705     62.4760      0.0041
   604.4000     44.2114     62.4767      0.0038
   604.4500     44.2114     62.4767      0.0038
   604.5000     44.2114     62.4767      0.0038
   604.5500     44.2114     62.4767      0.0038
   604.6000     44.2114     62.4767      0.0038
   604.6500     44.4353     62.4776      0.0035
   604.7000     44.4353     62.4776      0.0035
   604.7500     44.4353     62.4776      0.0035
   604.8000     44.4353     62.4776      0.0035
   604.8500     44.4353     62.4776      0.0035
   604.9000     44.6384     62.4786      0.0034
   604.9500     44.6384     62.4786      0.0034
   605.0000     44.6384     62.4786      0.0034
   605.0500     44.6384     62.4786      0.0034
   605.1000     44.6384     62.4786      0.0034
   605.1500     44.8829     62.4795      0.0034
   605.2000     44.8829     62.4795      0.0034
   605.2500     44.8829     62.4795      0.0034
   605.3000     44.8829     62.4795      0.0034
   605.3500     44.8829     62.4795      0.0034
   605.4000     45.6233     62.4803      0.0034
   605.4500     45.6233     62.4803      0.0034
   605.5000     45.6233     62.4803      0.0034
   605.5500     45.6233     62.4803      0.0034
   605.6000     45.6233     62.4803      0.0034
   605.6500     46.2603     62.4810      0.0034
   605.7000     46.2603     62.4810      0.0034
   605.7500     46.2603     62.4810      0.0034
   605.8000     46.2603     62.4810      0.0034
   605.8500     46.2603     62.4810      0.0034
   605.9000     46.8561     62.4820      0.0034
   605.9500     46.8561     62.4820      0.0034
   606.0000     46.8561     62.4820      0.0034
   606.0500     46.8561     62.4820      0.0034
   606.1000     46.8561     62.4820      0.0034
   606.1500     46.8733     62.4828      0.0035
   606.2000     46.8733     62.4828      0.0035
   606.2500     46.8733     62.4828      0.0035
   606.3000     46.8733     62.4828      0.0035
   606.3500     46.8733     62.4828      0.0035
   606.4000     46.8905     62.4836      0.0036
   606.4500     46.8905     62.4836      0.0036
   606.5000     46.8905     62.4836      0.0036
   606.5500     46.8905     62.4836      0.0036
   606.6000     46.8905     62.4836      0.0036
   606.6500     46.9008     62.4844      0.0036
   606.7000     46.9008     62.4844      0.0036
   606.7500     46.9008     62.4844      0.0036
   606.8000     46.9008     62.4844      0.0036
   606.8500     46.9008     62.4844      0.0036
   606.9000     47.1281     62.4854      0.0034
   606.9500     47.1281     62.4854      0.0034
   607.0000     47.1281     62.4854      0.0034
   607.0500     47.1281     62.4854      0.0034
   607.1000     47.1281     62.4854      0.0034
   607.1500     47.6171     62.4865      0.0031
   607.2000     47.6171     62.4865      0.0031
   607.2500     47.6171     62.4865      0.0031
