~Version Information
VERS.                      2.0: CWLS Log ASCII Standard - VERSION 2.0
WRAP.                       NO: One line per depth step
~Well Information Block
STRT.FT                -2.2500: 
STOP.FT              1141.3000: 
STEP.FT                 0.0500: 
NULL.                -999.2500: 
COMP.                         ANADARKO PETROLEUM CORPORATION: COMPANY
WELL.                         DAVIS 32-31: WELL
FLD.                          BILLABONG: FIELD
LOC.                          SW/NE S31 T47N R72W: LOCATION
CNTY.                         CAMPBELL: COUNTY
SRVC.                         GOODWELL, INC.: SERVICE COMPANY
DATE.          			Thu Sep 22 14-57-45 2011: LOG DATE
UWI.                          4900533095: UNIQUE WELL ID
STAT.                         WYOMING: STATE
~Curve Information Block
DEPT.FT            0 000 00 00: Depth
GR.                           : Gamma Ray
TEMP.degF                     : Downhole Temperature
DTMP.degF                     : Delta Temperature
~Parameter Information Block
~A  Depth        GR         TEMP        DTMP    
# ...
   448.6500     45.8850     62.0294      0.0525
   448.7000     45.8850     62.0294      0.0525
   448.7500     45.8850     62.0294      0.0525
   448.8000     45.8850     62.0294      0.0525
   448.8500     45.8850     62.0294      0.0525
   448.9000     46.3843     62.0301      0.0251
   448.9500     46.3843     62.0301      0.0251
   449.0000     46.3843     62.0301      0.0251
   449.0500     46.3843     62.0301      0.0251
   449.1000     46.3843     62.0301      0.0251
   449.1500     46.9663     62.0305      0.0087
   449.2000     46.9663     62.0305      0.0087
   449.2500     46.9663     62.0305      0.0087
   449.3000     46.9663     62.0305      0.0087
   449.3500     46.9663     62.0305      0.0087
   449.4000     47.0110     62.0308      0.0026
   449.4500     47.0110     62.0308      0.0026
   449.5000     47.0110     62.0308      0.0026
   449.5500     47.0110     62.0308      0.0026
   449.6000     47.0110     62.0308      0.0026
   449.6500     47.0971     62.0311      0.0013
   449.7000     47.0971     62.0311      0.0013
   449.7500     47.0971     62.0311      0.0013
   449.8000     47.0971     62.0311      0.0013
   449.8500     47.0971     62.0311      0.0013
   449.9000     47.1419     62.0314      0.0010
   449.9500     47.1419     62.0314      0.0010
   450.0000     47.1419     62.0314      0.0010
   450.0500     47.1419     62.0314      0.0010
   450.1000     47.1419     62.0314      0.0010
   450.1500     47.0627     62.0317      0.0010
   450.2000     47.0627     62.0317      0.0010
   450.2500     47.0627     62.0317      0.0010
   450.3000     47.0627     62.0317      0.0010
   450.3500     47.0627     62.0317      0.0010
   450.4000     46.9008     62.0318      0.0009
   450.4500     46.9008     62.0318      0.0009
   450.5000     46.9008     62.0318      0.0009
   450.5500     46.9008     62.0318      0.0009
   450.6000     46.9008     62.0318      0.0009
   450.6500     46.4910     62.0320      0.0008
   450.7000     46.4910     62.0320      0.0008
   450.7500     46.4910     62.0320      0.0008
   450.8000     46.4910     62.0320      0.0008
   450.8500     46.4910     62.0320      0.0008
   450.9000     45.7920     62.0322      0.0006
   450.9500     45.7920     62.0322      0.0006
   451.0000     45.7920     62.0322      0.0006
   451.0500     45.7920     62.0322      0.0006
   451.1000     45.7920     62.0322      0.0006
   451.1500     45.1481     62.0324     -0.0010
   451.2000     45.1481     62.0324     -0.0010
   451.2500     45.1481     62.0324     -0.0010
   451.3000     45.1481     62.0324     -0.0010
   451.3500     45.1481     62.0324     -0.0010
   451.4000     44.6281     62.0327     -0.0079
   451.4500     44.6281     62.0327     -0.0079
   451.5000     44.6281     62.0327     -0.0079
   451.5500     44.6281     62.0327     -0.0079
   451.6000     44.6281     62.0327     -0.0079
   451.6500     44.6453     62.0328     -0.0280
   451.7000     44.6453     62.0328     -0.0280
   451.7500     44.6453     62.0328     -0.0280
   451.8000     44.6453     62.0328     -0.0280
   451.8500     44.6453     62.0328     -0.0280
   451.9000     44.7865     62.0326     -0.0622
   451.9500     44.7865     62.0326     -0.0622
   452.0000     44.7865     62.0326     -0.0622
   452.0500     44.7865     62.0326     -0.0622
   452.1000     44.7865     62.0326     -0.0622
   452.1500     45.1343     62.0297     -0.0914
   452.2000     45.1343     62.0297     -0.0914
   452.2500     45.1343     62.0297     -0.0914
   452.3000     45.1343     62.0297     -0.0914
   452.3500     45.1343     62.0297     -0.0914
   452.4000     45.0275     62.0160     -0.0911
   452.4500     45.0275     62.0160     -0.0911
   452.5000     45.0275     62.0160     -0.0911
   452.5500     45.0275     62.0160     -0.0911
   452.6000     45.0275     62.0160     -0.0911
   452.6500     45.2514     61.9760     -0.0664
   452.7000     45.2514     61.9760     -0.0664
   452.7500     45.2514     61.9760     -0.0664
   452.8000     45.2514     61.9760     -0.0664
   452.8500     45.2514     61.9760     -0.0664
   452.9000     45.3512     61.9078     -0.0481
   452.9500     45.3512     61.9078     -0.0481
   453.0000     45.3512     61.9078     -0.0481
   453.0500     45.3512     61.9078     -0.0481
   453.1000     45.3512     61.9078     -0.0481
   453.1500     45.5337     61.8495     -0.0494
   453.2000     45.5337     61.8495     -0.0494
   453.2500     45.5337     61.8495     -0.0494
   453.3000     45.5337     61.8495     -0.0494
   453.3500     45.5337     61.8495     -0.0494
   453.4000     46.0055     61.8504     -0.0471
   453.4500     46.0055     61.8504     -0.0471
   453.5000     46.0055     61.8504     -0.0471
   453.5500     46.0055     61.8504     -0.0471
   453.6000     46.0055     61.8504     -0.0471
   453.6500     46.4773     61.9000     -0.0149
   453.7000     46.4773     61.9000     -0.0149
   453.7500     46.4773     61.9000     -0.0149
   453.8000     46.4773     61.9000     -0.0149
   453.8500     46.4773     61.9000     -0.0149
   453.9000     46.9904     61.9363      0.0398
   453.9500     46.9904     61.9363      0.0398
   454.0000     46.9904     61.9363      0.0398
   454.0500     46.9904     61.9363      0.0398
   454.1000     46.9904     61.9363      0.0398
   454.1500     47.3278     61.9310      0.0792
   454.2000     47.3278     61.9310      0.0792
   454.2500     47.3278     61.9310      0.0792
   454.3000     47.3278     61.9310      0.0792
   454.3500     47.3278     61.9310      0.0792
   454.4000     47.2314     61.9219      0.0720
   454.4500     47.2314     61.9219      0.0720
   454.5000     47.2314     61.9219      0.0720
   454.5500     47.2314     61.9219      0.0720
   454.6000     47.2314     61.9219      0.0720
   454.6500     46.7218     61.9463      0.0307
   454.7000     46.7218     61.9463      0.0307
   454.7500     46.7218     61.9463      0.0307
   454.8000     46.7218     61.9463      0.0307
   454.8500     46.7218     61.9463      0.0307
   454.9000     46.2121     61.9873      0.0038
   454.9500     46.2121     61.9873      0.0038
   455.0000     46.2121     61.9873      0.0038
   455.0500     46.2121     61.9873      0.0038
   455.1000     46.2121     61.9873      0.0038
   455.1500     46.1157     62.0079      0.0158
   455.2000     46.1157     62.0079      0.0158
   455.2500     46.1157     62.0079      0.0158
   455.3000     46.1157     62.0079      0.0158
   455.3500     46.1157     62.0079      0.0158
   455.4000     45.8127     61.9944      0.0384
   455.4500     45.8127     61.9944      0.0384
   455.5000     45.8127     61.9944      0.0384
   455.5500     45.8127     61.9944      0.0384
   455.6000     45.8127     61.9944      0.0384
   455.6500     45.7163     61.9615      0.0389
   455.7000     45.7163     61.9615      0.0389
   455.7500     45.7163     61.9615      0.0389
   455.8000     45.7163     61.9615      0.0389
   455.8500     45.7163     61.9615      0.0389
   455.9000     45.4545     61.9439      0.0233
   455.9500     45.4545     61.9439      0.0233
   456.0000     45.4545     61.9439      0.0233
   456.0500     45.4545     61.9439      0.0233
   456.1000     45.4545     61.9439      0.0233
   456.1500     45.2548     61.9626      0.0143
   456.2000     45.2548     61.9626      0.0143
   456.2500     45.2548     61.9626      0.0143
   456.3000     45.2548     61.9626      0.0143
   456.3500     45.2548     61.9626      0.0143
   456.4000     45.4270     61.9986      0.0213
   456.4500     45.4270     61.9986      0.0213
   456.5000     45.4270     61.9986      0.0213
   456.5500     45.4270     61.9986      0.0213
   456.6000     45.4270     61.9986      0.0213
   456.6500     45.7094     62.0241      0.0378
   456.7000     45.7094     62.0241      0.0378
   456.7500     45.7094     62.0241      0.0378
   456.8000     45.7094     62.0241      0.0378
   456.8500     45.7094     62.0241      0.0378
   456.9000     46.6529     62.0340      0.0467
   456.9500     46.6529     62.0340      0.0467
