~Version Information
VERS.                      2.0: CWLS Log ASCII Standard - VERSION 2.0
WRAP.                       NO: One line per depth step
~Well Information Block
STRT.FT                -2.2500: 
STOP.FT              1141.3000: 
STEP.FT                 0.0500: 
NULL.                -999.2500: 
COMP.                         ANADARKO PETROLEUM CORPORATION: COMPANY
WELL.                         DAVIS 32-31: WELL
FLD.                          BILLABONG: FIELD
LOC.                          SW/NE S31 T47N R72W: LOCATION
CNTY.                         CAMPBELL: COUNTY
SRVC.                         GOODWELL, INC.: SERVICE COMPANY
DATE.          			Thu Sep 22 14-57-45 2011: LOG DATE
UWI.                          4900533095: UNIQUE WELL ID
STAT.                         WYOMING: STATE
~Curve Information Block
DEPT.FT            0 000 00 00: Depth
GR.                           : Gamma Ray
TEMP.degF                     : Downhole Temperature
DTMP.degF                     : Delta Temperature
~Parameter Information Block
~A  Depth        GR         TEMP        DTMP    
# ...
   674.1000     48.3196     62.9491      0.0470
   674.1500     46.0468     62.9519      0.0097
   674.2000     46.0468     62.9519      0.0097
   674.2500     46.0468     62.9519      0.0097
   674.3000     46.0468     62.9519      0.0097
   674.3500     46.0468     62.9519      0.0097
   674.4000     43.7741     62.9538     -0.0268
   674.4500     43.7741     62.9538     -0.0268
   674.5000     43.7741     62.9538     -0.0268
   674.5500     43.7741     62.9538     -0.0268
   674.6000     43.7741     62.9538     -0.0268
   674.6500     41.5014     62.9534     -0.0436
   674.7000     41.5014     62.9534     -0.0436
   674.7500     41.5014     62.9534     -0.0436
   674.8000     41.5014     62.9534     -0.0436
   674.8500     41.5014     62.9534     -0.0436
   674.9000     39.5179     62.9441     -0.0341
   674.9500     39.5179     62.9441     -0.0341
   675.0000     39.5179     62.9441     -0.0341
   675.0500     39.5179     62.9441     -0.0341
   675.1000     39.5179     62.9441     -0.0341
   675.1500     38.1680     62.9164     -0.0128
   675.2000     38.1680     62.9164     -0.0128
   675.2500     38.1680     62.9164     -0.0128
   675.3000     38.1680     62.9164     -0.0128
   675.3500     38.1680     62.9164     -0.0128
   675.4000     37.5207     62.8761      0.0026
   675.4500     37.5207     62.8761      0.0026
   675.5000     37.5207     62.8761      0.0026
   675.5500     37.5207     62.8761      0.0026
   675.6000     37.5207     62.8761      0.0026
   675.6500     36.9146     62.8566      0.0101
   675.7000     36.9146     62.8566      0.0101
   675.7500     36.9146     62.8566      0.0101
   675.8000     36.9146     62.8566      0.0101
   675.8500     36.9146     62.8566      0.0101
   675.9000     36.5152     62.8809      0.0174
   675.9500     36.5152     62.8809      0.0174
   676.0000     36.5152     62.8809      0.0174
   676.0500     36.5152     62.8809      0.0174
   676.1000     36.5152     62.8809      0.0174
   676.1500     36.4876     62.9262      0.0326
   676.2000     36.4876     62.9262      0.0326
   676.2500     36.4876     62.9262      0.0326
   676.3000     36.4876     62.9262      0.0326
   676.3500     36.4876     62.9262      0.0326
   676.4000     36.9972     62.9591      0.0539
   676.4500     36.9972     62.9591      0.0539
   676.5000     36.9972     62.9591      0.0539
   676.5500     36.9972     62.9591      0.0539
   676.6000     36.9972     62.9591      0.0539
   676.6500     37.6722     62.9735      0.0647
   676.7000     37.6722     62.9735      0.0647
   676.7500     37.6722     62.9735      0.0647
   676.8000     37.6722     62.9735      0.0647
   676.8500     37.6722     62.9735      0.0647
   676.9000     38.5950     62.9788      0.0536
   676.9500     38.5950     62.9788      0.0536
   677.0000     38.5950     62.9788      0.0536
   677.0500     38.5950     62.9788      0.0536
   677.1000     38.5950     62.9788      0.0536
   677.1500     39.8072     62.9816      0.0319
   677.2000     39.8072     62.9816      0.0319
   677.2500     39.8072     62.9816      0.0319
   677.3000     39.8072     62.9816      0.0319
   677.3500     39.8072     62.9816      0.0319
   677.4000     41.4325     62.9839      0.0153
   677.4500     41.4325     62.9839      0.0153
   677.5000     41.4325     62.9839      0.0153
   677.5500     41.4325     62.9839      0.0153
   677.6000     41.4325     62.9839      0.0153
   677.6500     43.1405     62.9860      0.0035
   677.7000     43.1405     62.9860      0.0035
   677.7500     43.1405     62.9860      0.0035
   677.8000     43.1405     62.9860      0.0035
   677.8500     43.1405     62.9860      0.0035
   677.9000     44.6625     62.9880     -0.0132
   677.9500     44.6625     62.9880     -0.0132
   678.0000     44.6625     62.9880     -0.0132
   678.0500     44.6625     62.9880     -0.0132
   678.1000     44.6625     62.9880     -0.0132
   678.1500     45.7300     62.9900     -0.0350
   678.2000     45.7300     62.9900     -0.0350
   678.2500     45.7300     62.9900     -0.0350
   678.3000     45.7300     62.9900     -0.0350
   678.3500     45.7300     62.9900     -0.0350
   678.4000     47.1281     62.9898     -0.0457
   678.4500     47.1281     62.9898     -0.0457
   678.5000     47.1281     62.9898     -0.0457
   678.5500     47.1281     62.9898     -0.0457
   678.6000     47.1281     62.9898     -0.0457
   678.6500     48.3609     62.9805     -0.0344
   678.7000     48.3609     62.9805     -0.0344
   678.7500     48.3609     62.9805     -0.0344
   678.8000     48.3609     62.9805     -0.0344
   678.8500     48.3609     62.9805     -0.0344
   678.9000     49.8829     62.9523     -0.0126
   678.9500     49.8829     62.9523     -0.0126
   679.0000     49.8829     62.9523     -0.0126
   679.0500     49.8829     62.9523     -0.0126
   679.1000     49.8829     62.9523     -0.0126
   679.1500     51.0606     62.9117      0.0028
   679.2000     51.0606     62.9117      0.0028
   679.2500     51.0606     62.9117      0.0028
   679.3000     51.0606     62.9117      0.0028
   679.3500     51.0606     62.9117      0.0028
   679.4000     52.5275     62.8925      0.0097
   679.4500     52.5275     62.8925      0.0097
   679.5000     52.5275     62.8925      0.0097
   679.5500     52.5275     62.8925      0.0097
   679.6000     52.5275     62.8925      0.0097
   679.6500     53.4573     62.9172      0.0154
   679.7000     53.4573     62.9172      0.0154
   679.7500     53.4573     62.9172      0.0154
   679.8000     53.4573     62.9172      0.0154
   679.8500     53.4573     62.9172      0.0154
   679.9000     54.2218     62.9627      0.0250
   679.9500     54.2218     62.9627      0.0250
   680.0000     54.2218     62.9627      0.0250
   680.0500     54.2218     62.9627      0.0250
   680.1000     54.2218     62.9627      0.0250
   680.1500     54.4904     62.9955      0.0313
   680.2000     54.4904     62.9955      0.0313
   680.2500     54.4904     62.9955      0.0313
   680.3000     54.4904     62.9955      0.0313
   680.3500     54.4904     62.9955      0.0313
   680.4000     54.5937     63.0092      0.0195
   680.4500     54.5937     63.0092      0.0195
   680.5000     54.5937     63.0092      0.0195
   680.5500     54.5937     63.0092      0.0195
   680.6000     54.5937     63.0092      0.0195
   680.6500     54.6832     63.0113     -0.0089
   680.7000     54.6832     63.0113     -0.0089
   680.7500     54.6832     63.0113     -0.0089
   680.8000     54.6832     63.0113     -0.0089
   680.8500     54.6832     63.0113     -0.0089
   680.9000     55.0620     63.0022     -0.0390
   680.9500     55.0620     63.0022     -0.0390
   681.0000     55.0620     63.0022     -0.0390
   681.0500     55.0620     63.0022     -0.0390
   681.1000     55.0620     63.0022     -0.0390
   681.1500     55.1102     62.9743     -0.0732
   681.2000     55.1102     62.9743     -0.0732
   681.2500     55.1102     62.9743     -0.0732
   681.3000     55.1102     62.9743     -0.0732
   681.3500     55.1102     62.9743     -0.0732
   681.4000     55.4477     62.9315     -0.1258
   681.4500     55.4477     62.9315     -0.1258
   681.5000     55.4477     62.9315     -0.1258
   681.5500     55.4477     62.9315     -0.1258
   681.6000     55.4477     62.9315     -0.1258
   681.6500     55.3719     62.8994     -0.1882
   681.7000     55.3719     62.8994     -0.1882
   681.7500     55.3719     62.8994     -0.1882
   681.8000     55.3719     62.8994     -0.1882
   681.8500     55.3719     62.8994     -0.1882
   681.9000     55.0138     62.8848     -0.2150
   681.9500     55.0138     62.8848     -0.2150
   682.0000     55.0138     62.8848     -0.2150
   682.0500     55.0138     62.8848     -0.2150
   682.1000     55.0138     62.8848     -0.2150
   682.1500     54.3664     62.8492     -0.1678
   682.2000     54.3664     62.8492     -0.1678
   682.2500     54.3664     62.8492     -0.1678
   682.3000     54.3664     62.8492     -0.1678
   682.3500     54.3664     62.8492     -0.1678
   682.4000     54.5041     62.7575     -0.0771
