~Version Information
VERS.                      2.0: CWLS Log ASCII Standard - VERSION 2.0
WRAP.                       NO: One line per depth step
~Well Information Block
STRT.FT                -2.2500: 
STOP.FT              1141.3000: 
STEP.FT                 0.0500: 
NULL.                -999.2500: 
COMP.                         ANADARKO PETROLEUM CORPORATION: COMPANY
WELL.                         DAVIS 32-31: WELL
FLD.                          BILLABONG: FIELD
LOC.                          SW/NE S31 T47N R72W: LOCATION
CNTY.                         CAMPBELL: COUNTY
SRVC.                         GOODWELL, INC.: SERVICE COMPANY
DATE.          			Thu Sep 22 14-57-45 2011: LOG DATE
UWI.                          4900533095: UNIQUE WELL ID
STAT.                         WYOMING: STATE
~Curve Information Block
DEPT.FT            0 000 00 00: Depth
GR.                           : Gamma Ray
TEMP.degF                     : Downhole Temperature
DTMP.degF                     : Delta Temperature
~Parameter Information Block
~A  Depth        GR         TEMP        DTMP    
# ...
    72.9000     62.3554     68.3478     -0.0237
    72.9500     62.3554     68.3478     -0.0237
    73.0000     62.3554     68.3478     -0.0237
    73.0500     62.3554     68.3478     -0.0237
    73.1000     62.3554     68.3478     -0.0237
    73.1500     59.8003     68.3117     -0.0472
    73.2000     59.8003     68.3117     -0.0472
    73.2500     59.8003     68.3117     -0.0472
    73.3000     59.8003     68.3117     -0.0472
    73.3500     59.8003     68.3117     -0.0472
    73.4000     56.9904     68.2623     -0.0840
    73.4500     56.9904     68.2623     -0.0840
    73.5000     56.9904     68.2623     -0.0840
    73.5500     56.9904     68.2623     -0.0840
    73.6000     56.9904     68.2623     -0.0840
    73.6500     54.1253     68.2272     -0.1099
    73.7000     54.1253     68.2272     -0.1099
    73.7500     54.1253     68.2272     -0.1099
    73.8000     54.1253     68.2272     -0.1099
    73.8500     54.1253     68.2272     -0.1099
    73.9000     51.3774     68.2190     -0.1115
    73.9500     51.3774     68.2190     -0.1115
    74.0000     51.3774     68.2190     -0.1115
    74.0500     51.3774     68.2190     -0.1115
    74.1000     51.3774     68.2190     -0.1115
    74.1500     48.7948     68.2094     -0.0967
    74.2000     48.7948     68.2094     -0.0967
    74.2500     48.7948     68.2094     -0.0967
    74.3000     48.7948     68.2094     -0.0967
    74.3500     48.7948     68.2094     -0.0967
    74.4000     46.2603     68.1753     -0.0730
    74.4500     46.2603     68.1753     -0.0730
    74.5000     46.2603     68.1753     -0.0730
    74.5500     46.2603     68.1753     -0.0730
    74.6000     46.2603     68.1753     -0.0730
    74.6500     43.9256     68.1396     -0.0477
    74.7000     43.9256     68.1396     -0.0477
    74.7500     43.9256     68.1396     -0.0477
    74.8000     43.9256     68.1396     -0.0477
    74.8500     43.9256     68.1396     -0.0477
    74.9000     41.5634     68.1248     -0.0318
    74.9500     41.5634     68.1248     -0.0318
    75.0000     41.5634     68.1248     -0.0318
    75.0500     41.5634     68.1248     -0.0318
    75.1000     41.5634     68.1248     -0.0318
    75.1500     39.3664     68.1183     -0.0225
    75.2000     39.3664     68.1183     -0.0225
    75.2500     39.3664     68.1183     -0.0225
    75.3000     39.3664     68.1183     -0.0225
    75.3500     39.3664     68.1183     -0.0225
    75.4000     37.6377     68.1162     -0.0133
    75.4500     37.6377     68.1162     -0.0133
    75.5000     37.6377     68.1162     -0.0133
    75.5500     37.6377     68.1162     -0.0133
    75.6000     37.6377     68.1162     -0.0133
    75.6500     36.4601     68.1318     -0.0162
    75.7000     36.4601     68.1318     -0.0162
    75.7500     36.4601     68.1318     -0.0162
    75.8000     36.4601     68.1318     -0.0162
    75.8500     36.4601     68.1318     -0.0162
    75.9000     35.4270     68.1554     -0.0367
    75.9500     35.4270     68.1554     -0.0367
    76.0000     35.4270     68.1554     -0.0367
    76.0500     35.4270     68.1554     -0.0367
    76.1000     35.4270     68.1554     -0.0367
    76.1500     34.7314     68.1643     -0.0510
    76.2000     34.7314     68.1643     -0.0510
    76.2500     34.7314     68.1643     -0.0510
    76.3000     34.7314     68.1643     -0.0510
    76.3500     34.7314     68.1643     -0.0510
    76.4000     34.3457     68.1487     -0.0457
    76.4500     34.3457     68.1487     -0.0457
    76.5000     34.3457     68.1487     -0.0457
    76.5500     34.3457     68.1487     -0.0457
    76.6000     34.3457     68.1487     -0.0457
    76.6500     34.2355     68.1072     -0.0388
    76.7000     34.2355     68.1072     -0.0388
    76.7500     34.2355     68.1072     -0.0388
    76.8000     34.2355     68.1072     -0.0388
    76.8500     34.2355     68.1072     -0.0388
    76.9000     34.3320     68.0514     -0.0424
    76.9500     34.3320     68.0514     -0.0424
    77.0000     34.3320     68.0514     -0.0424
    77.0500     34.3320     68.0514     -0.0424
    77.1000     34.3320     68.0514     -0.0424
    77.1500     34.6625     68.0163     -0.0480
    77.2000     34.6625     68.0163     -0.0480
    77.2500     34.6625     68.0163     -0.0480
    77.3000     34.6625     68.0163     -0.0480
    77.3500     34.6625     68.0163     -0.0480
    77.4000     35.1584     68.0248     -0.0458
    77.4500     35.1584     68.0248     -0.0458
    77.5000     35.1584     68.0248     -0.0458
    77.5500     35.1584     68.0248     -0.0458
    77.6000     35.1584     68.0248     -0.0458
    77.6500     35.9298     68.0541     -0.0316
    77.7000     35.9298     68.0541     -0.0316
    77.7500     35.9298     68.0541     -0.0316
    77.8000     35.9298     68.0541     -0.0316
    77.8500     35.9298     68.0541     -0.0316
    77.9000     36.8044     68.0705     -0.0103
    77.9500     36.8044     68.0705     -0.0103
    78.0000     36.8044     68.0705     -0.0103
    78.0500     36.8044     68.0705     -0.0103
    78.1000     36.8044     68.0705     -0.0103
    78.1500     37.7204     68.0683      0.0006
    78.2000     37.7204     68.0683      0.0006
    78.2500     37.7204     68.0683      0.0006
    78.3000     37.7204     68.0683      0.0006
    78.3500     37.7204     68.0683      0.0006
    78.4000     38.3058     68.0571     -0.0102
    78.4500     38.3058     68.0571     -0.0102
    78.5000     38.3058     68.0571     -0.0102
    78.5500     38.3058     68.0571     -0.0102
    78.6000     38.3058     68.0571     -0.0102
    78.6500     39.2355     68.0439     -0.0315
    78.7000     39.2355     68.0439     -0.0315
    78.7500     39.2355     68.0439     -0.0315
    78.8000     39.2355     68.0439     -0.0315
    78.8500     39.2355     68.0439     -0.0315
    78.9000     39.8760     68.0308     -0.0465
    78.9500     39.8760     68.0308     -0.0465
    79.0000     39.8760     68.0308     -0.0465
    79.0500     39.8760     68.0308     -0.0465
    79.1000     39.8760     68.0308     -0.0465
    79.1500     40.1860     68.0176     -0.0522
    79.2000     40.1860     68.0176     -0.0522
    79.2500     40.1860     68.0176     -0.0522
    79.3000     40.1860     68.0176     -0.0522
    79.3500     40.1860     68.0176     -0.0522
    79.4000     40.0069     68.0043     -0.0537
    79.4500     40.0069     68.0043     -0.0537
    79.5000     40.0069     68.0043     -0.0537
    79.5500     40.0069     68.0043     -0.0537
    79.6000     40.0069     68.0043     -0.0537
    79.6500     39.6901     67.9910     -0.0554
    79.7000     39.6901     67.9910     -0.0554
    79.7500     39.6901     67.9910     -0.0554
    79.8000     39.6901     67.9910     -0.0554
    79.8500     39.6901     67.9910     -0.0554
    79.9000     39.3182     67.9776     -0.0615
    79.9500     39.3182     67.9776     -0.0615
    80.0000     39.3182     67.9776     -0.0615
    80.0500     39.3182     67.9776     -0.0615
    80.1000     39.3182     67.9776     -0.0615
    80.1500     38.6983     67.9640     -0.0768
    80.2000     38.6983     67.9640     -0.0768
    80.2500     38.6983     67.9640     -0.0768
    80.3000     38.6983     67.9640     -0.0768
    80.3500     38.6983     67.9640     -0.0768
    80.4000     37.8719     67.9497     -0.0993
    80.4500     37.8719     67.9497     -0.0993
    80.5000     37.8719     67.9497     -0.0993
    80.5500     37.8719     67.9497     -0.0993
    80.6000     37.8719     67.9497     -0.0993
    80.6500     37.5413     67.9331     -0.1152
    80.7000     37.5413     67.9331     -0.1152
    80.7500     37.5413     67.9331     -0.1152
    80.8000     37.5413     67.9331     -0.1152
    80.8500     37.5413     67.9331     -0.1152
    80.9000     37.3347     67.9078     -0.1179
    80.9500     37.3347     67.9078     -0.1179
    81.0000     37.3347     67.9078     -0.1179
    81.0500     37.3347     67.9078     -0.1179
    81.1000     37.3347     67.9078     -0.1179
    81.1500     37.7410     67.8639     -0.1191
    81.2000     37.7410     67.8639     -0.1191
