~Version Information
VERS.                      2.0: CWLS Log ASCII Standard - VERSION 2.0
WRAP.                       NO: One line per depth step
~Well Information Block
STRT.FT                -2.2500: 
STOP.FT              1141.3000: 
STEP.FT                 0.0500: 
NULL.                -999.2500: 
COMP.                         ANADARKO PETROLEUM CORPORATION: COMPANY
WELL.                         DAVIS 32-31: WELL
FLD.                          BILLABONG: FIELD
LOC.                          SW/NE S31 T47N R72W: LOCATION
CNTY.                         CAMPBELL: COUNTY
SRVC.                         GOODWELL, INC.: SERVICE COMPANY
DATE.          			Thu Sep 22 14-57-45 2011: LOG DATE
UWI.                          4900533095: UNIQUE WELL ID
STAT.                         WYOMING: STATE
~Curve Information Block
DEPT.FT            0 000 00 00: Depth
GR.                           : Gamma Ray
TEMP.degF                     : Downhole Temperature
DTMP.degF                     : Delta Temperature
~Parameter Information Block
~A  Depth        GR         TEMP        DTMP    
# ...
   373.5000     44.8760     61.9559      0.0142
   373.5500     44.8760     61.9559      0.0142
   373.6000     44.8760     61.9559      0.0142
   373.6500     45.2893     61.9646      0.0431
   373.7000     45.2893     61.9646      0.0431
   373.7500     45.2893     61.9646      0.0431
   373.8000     45.2893     61.9646      0.0431
   373.8500     45.2893     61.9646      0.0431
   373.9000     45.3306     61.9979      0.0615
   373.9500     45.3306     61.9979      0.0615
   374.0000     45.3306     61.9979      0.0615
   374.0500     45.3306     61.9979      0.0615
   374.1000     45.3306     61.9979      0.0615
   374.1500     45.8264     62.0428      0.0658
   374.2000     45.8264     62.0428      0.0658
   374.2500     45.8264     62.0428      0.0658
   374.3000     45.8264     62.0428      0.0658
   374.3500     45.8264     62.0428      0.0658
   374.4000     46.4050     62.0729      0.0640
   374.4500     46.4050     62.0729      0.0640
   374.5000     46.4050     62.0729      0.0640
   374.5500     46.4050     62.0729      0.0640
   374.6000     46.4050     62.0729      0.0640
   374.6500     46.9422     62.0843      0.0523
   374.7000     46.9422     62.0843      0.0523
   374.7500     46.9422     62.0843      0.0523
   374.8000     46.9422     62.0843      0.0523
   374.8500     46.9422     62.0843      0.0523
   374.9000     47.4793     62.0869      0.0142
   374.9500     47.4793     62.0869      0.0142
   375.0000     47.4793     62.0869      0.0142
   375.0500     47.4793     62.0869      0.0142
   375.1000     47.4793     62.0869      0.0142
   375.1500     47.5620     62.0871     -0.0451
   375.2000     47.5620     62.0871     -0.0451
   375.2500     47.5620     62.0871     -0.0451
   375.3000     47.5620     62.0871     -0.0451
   375.3500     47.5620     62.0871     -0.0451
   375.4000     47.8926     62.0840     -0.0927
   375.4500     47.8926     62.0840     -0.0927
   375.5000     47.8926     62.0840     -0.0927
   375.5500     47.8926     62.0840     -0.0927
   375.6000     47.8926     62.0840     -0.0927
   375.6500     48.0992     62.0691     -0.0986
   375.7000     48.0992     62.0691     -0.0986
   375.7500     48.0992     62.0691     -0.0986
   375.8000     48.0992     62.0691     -0.0986
   375.8500     48.0992     62.0691     -0.0986
   375.9000     48.2645     62.0263     -0.0677
   375.9500     48.2645     62.0263     -0.0677
   376.0000     48.2645     62.0263     -0.0677
   376.0500     48.2645     62.0263     -0.0677
   376.1000     48.2645     62.0263     -0.0677
   376.1500     48.2231     61.9526     -0.0316
   376.2000     48.2231     61.9526     -0.0316
   376.2500     48.2231     61.9526     -0.0316
   376.3000     48.2231     61.9526     -0.0316
   376.3500     48.2231     61.9526     -0.0316
   376.4000     48.8430     61.8874     -0.0094
   376.4500     48.8430     61.8874     -0.0094
   376.5000     48.8430     61.8874     -0.0094
   376.5500     48.8430     61.8874     -0.0094
   376.6000     48.8430     61.8874     -0.0094
   376.6500     49.8416     61.8871      0.0051
   376.7000     49.8416     61.8871      0.0051
   376.7500     49.8416     61.8871      0.0051
   376.8000     49.8416     61.8871      0.0051
   376.8500     49.8416     61.8871      0.0051
   376.9000     50.4683     61.9514      0.0280
   376.9500     50.4683     61.9514      0.0280
   377.0000     50.4683     61.9514      0.0280
   377.0500     50.4683     61.9514      0.0280
   377.1000     50.4683     61.9514      0.0280
   377.1500     50.5578     62.0239      0.0648
   377.2000     50.5578     62.0239      0.0648
   377.2500     50.5578     62.0239      0.0648
   377.3000     50.5578     62.0239      0.0648
   377.3500     50.5578     62.0239      0.0648
   377.4000     50.9366     62.0653      0.0960
   377.4500     50.9366     62.0653      0.0960
   377.5000     50.9366     62.0653      0.0960
   377.5500     50.9366     62.0653      0.0960
   377.6000     50.9366     62.0653      0.0960
   377.6500     51.4394     62.0793      0.0901
   377.7000     51.4394     62.0793      0.0901
   377.7500     51.4394     62.0793      0.0901
   377.8000     51.4394     62.0793      0.0901
   377.8500     51.4394     62.0793      0.0901
   377.9000     51.7355     62.0822      0.0428
   377.9500     51.7355     62.0822      0.0428
   378.0000     51.7355     62.0822      0.0428
   378.0500     51.7355     62.0822      0.0428
   378.1000     51.7355     62.0822      0.0428
   378.1500     51.2879     62.0822     -0.0148
   378.2000     51.2879     62.0822     -0.0148
   378.2500     51.2879     62.0822     -0.0148
   378.3000     51.2879     62.0822     -0.0148
   378.3500     51.2879     62.0822     -0.0148
   378.4000     50.7989     62.0794     -0.0465
   378.4500     50.7989     62.0794     -0.0465
   378.5000     50.7989     62.0794     -0.0465
   378.5500     50.7989     62.0794     -0.0465
   378.6000     50.7989     62.0794     -0.0465
   378.6500     50.1446     62.0674     -0.0427
   378.7000     50.1446     62.0674     -0.0427
   378.7500     50.1446     62.0674     -0.0427
   378.8000     50.1446     62.0674     -0.0427
   378.8500     50.1446     62.0674     -0.0427
   378.9000     49.7383     62.0370     -0.0230
   378.9500     49.7383     62.0370     -0.0230
   379.0000     49.7383     62.0370     -0.0230
   379.0500     49.7383     62.0370     -0.0230
   379.1000     49.7383     62.0370     -0.0230
   379.1500     49.0840     61.9943     -0.0081
   379.2000     49.0840     61.9943     -0.0081
   379.2500     49.0840     61.9943     -0.0081
   379.3000     49.0840     61.9943     -0.0081
   379.3500     49.0840     61.9943     -0.0081
   379.4000     48.1680     61.9723     -0.0012
   379.4500     48.1680     61.9723     -0.0012
   379.5000     48.1680     61.9723     -0.0012
   379.5500     48.1680     61.9723     -0.0012
   379.6000     48.1680     61.9723     -0.0012
   379.6500     47.5413     61.9938      0.0050
   379.7000     47.5413     61.9938      0.0050
   379.7500     47.5413     61.9938      0.0050
   379.8000     47.5413     61.9938      0.0050
   379.8500     47.5413     61.9938      0.0050
   379.9000     47.3278     62.0362      0.0156
   379.9500     47.3278     62.0362      0.0156
   380.0000     47.3278     62.0362      0.0156
   380.0500     47.3278     62.0362      0.0156
   380.1000     47.3278     62.0362      0.0156
   380.1500     46.7424     62.0660      0.0245
   380.2000     46.7424     62.0660      0.0245
   380.2500     46.7424     62.0660      0.0245
   380.3000     46.7424     62.0660      0.0245
   380.3500     46.7424     62.0660      0.0245
   380.4000     45.6198     62.0770      0.0172
   380.4500     45.6198     62.0770      0.0172
   380.5000     45.6198     62.0770      0.0172
   380.5500     45.6198     62.0770      0.0172
   380.6000     45.6198     62.0770      0.0172
   380.6500     44.9518     62.0773     -0.0045
   380.7000     44.9518     62.0773     -0.0045
   380.7500     44.9518     62.0773     -0.0045
   380.8000     44.9518     62.0773     -0.0045
   380.8500     44.9518     62.0773     -0.0045
   380.9000     44.8072     62.0683     -0.0228
   380.9500     44.8072     62.0683     -0.0228
   381.0000     44.8072     62.0683     -0.0228
   381.0500     44.8072     62.0683     -0.0228
   381.1000     44.8072     62.0683     -0.0228
   381.1500     44.6625     62.0432     -0.0350
   381.2000     44.6625     62.0432     -0.0350
   381.2500     44.6625     62.0432     -0.0350
   381.3000     44.6625     62.0432     -0.0350
   381.3500     44.6625     62.0432     -0.0350
   381.4000     44.4353     62.0067     -0.0491
   381.4500     44.4353     62.0067     -0.0491
   381.5000     44.4353     62.0067     -0.0491
   381.5500     44.4353     62.0067     -0.0491
   381.6000     44.4353     62.0067     -0.0491
   381.6500     44.1253     61.9848     -0.0552
   381.7000     44.1253     61.9848     -0.0552
   381.7500     44.1253     61.9848     -0.0552
   381.8000     44.1253     61.9848     -0.0552
